,index,niveau,niveaunaam,gebiedcodenaam,wijkcode,jaar,Woonoppervlak_0_40,Woonoppervlak_40_60,Woonoppervlak_60_80,Woonoppervlak_80_100,Woonoppervlak_100_plus,Woonoppervlak_onbekend,VCRIMIN_I,Culturele_voorzieningen,Aanbod_basisscholen,Woningdichtheid,Eenouder_huishouden,Eenpersoons_huishouden,Stel_zonder_kind_huishouden,Stel_met_kind_huishouden,overige_huishouden,Corporatiewoningen,Particuliere_huur,Koopwoninging,WOZ_per_M2,index,wijkcode,lon,lat
0,4212,4,Wijk,AA Haarlemmerbuurt,AA,2021,"10,4",29,"25,4","15,5","19,1","0,6",,"7,4","7,4",10558.0,"6,3","59,8","22,8","10,4","0,7","41,4","31,1","27,5",6897.0,21,AA,4.89021995,52.3837291
1,4213,4,Wijk,AB Jordaan,AB,2021,"18,9","36,9","22,9","9,6","11,1","0,6",,"7,6","7,5",15870.0,"4,9","65,6","20,9","7,8","0,8","36,6",39,"24,5",7363.0,23,AB,4.8814382,52.3745526
2,4214,4,Wijk,AC Grachtengordel-West,AC,2021,"9,4","20,2","17,6",13,"38,8",1,,"8,4","7,4",9638.0,"3,5","59,3","26,6",9,"1,5","10,7","50,9","38,4",7773.0,24,AC,4.888214,52.37334925
3,4215,4,Wijk,AD Burgwallen-Nieuwe Zijde,AD,2021,"18,5","28,9","21,9","13,2","14,9","2,6",,8,"6,1",5302.0,"2,6","64,3","27,3",4,"1,8","9,7","72,7","17,6",7090.0,41,AD,4.8971187,52.3749354
4,4216,4,Wijk,AE Burgwallen-Oude Zijde,AE,2021,"14,7","31,8","20,4","12,6","18,1","2,3",,"7,8","6,3",8535.0,"3,6","65,5","24,8","4,2",2,"19,2","63,1","17,7",6379.0,42,AE,4.8976341,52.37229515
5,4217,4,Wijk,AF Nieuwmarkt/Lastage,AF,2021,"9,2","29,7","23,5","17,5","16,9","3,3",,"8,1","7,6",8978.0,"5,6","63,1","22,4","7,9",1,"39,9","32,7","27,4",6655.0,44,AF,4.904438,52.37291
6,4218,4,Wijk,AG Grachtengordel-Zuid,AG,2021,"9,7","19,5","19,3",15,"35,6","0,8",,"8,5","7,2",6735.0,"3,6",58,"26,8","10,1","1,5","5,3","59,6","35,1",7692.0,45,AG,4.8927838,52.3650518
7,4219,4,Wijk,AH De Weteringschans,AH,2021,"15,6",28,"20,1","11,4","24,4","0,5",,"8,5","7,7",8425.0,"3,7","58,5","26,1","10,2","1,5","11,4","53,9","34,7",7199.0,46,AH,4.89192575,52.36205585
8,4220,4,Wijk,AJ Weesperbuurt/Plantage,AJ,2021,13,"27,6","26,8","10,1","21,9","0,6",,"7,9","7,4",5621.0,4,"63,5","22,3",9,"1,2",29,"37,6","33,3",6970.0,47,AJ,4.91176485,52.3644559
9,4221,4,Wijk,AK Oostelijke Eilanden/Kadijken,AK,2021,"13,1","21,4",29,"22,9","13,3","0,4",,"6,6","7,5",7372.0,"6,9","61,9",19,"11,4","0,8","57,1","13,3","29,6",5957.0,48,AK,4.9218291,52.37072065
10,4224,4,Wijk,EA Sloterdijk-West,EA,2021,"2,1","15,6","46,1","18,9","16,9","0,4",,,,204.0,"2,3","42,5",41,"13,5","0,8","4,5","87,7","7,4",6108.0,95,EA,4.85453985,52.39031575
11,4225,4,Wijk,EB Spaarndammerbuurt/Zeeheldenbuurt,EB,2021,"10,9","44,5","21,9","15,2","7,1","0,4",,"6,5","7,4",4611.0,"9,1","59,5","18,9","11,7","0,8","61,3","16,6","22,1",6124.0,96,EB,4.8744225,52.39042765
12,4226,4,Wijk,EC Houthavens,EC,2021,"3,6","12,4","17,4","20,1","46,4","0,1",,"5,7","7,7",4545.0,"4,4","42,1","27,3","25,7","0,5","11,6","32,6","55,8",6279.0,97,EC,4.8803174,52.3937846
13,4227,4,Wijk,ED De Kolenkit,ED,2021,"22,8","26,1","17,1","21,1","12,8",0,,"5,2","6,6",7767.0,"7,6",53,"19,5","18,8","1,1",58,23,19,5139.0,98,ED,4.8413775,52.37864745
14,4228,4,Wijk,EE Landlust,EE,2021,4,"60,1","23,8","6,4","5,7",0,,"6,1","7,3",9492.0,"8,2","51,8","23,5",15,"1,5",42,"30,2","27,8",5795.0,99,EE,4.85425375,52.3798758
15,4229,4,Wijk,EF Erasmuspark,EF,2021,"2,8","66,2","18,5","7,9","4,6",0,,"6,1","6,8",8524.0,"6,5","48,9","30,4","12,9","1,3",14,"43,5","42,5",5880.0,100,EF,4.85118035,52.3762431
16,4230,4,Wijk,EG Centrale Markt,EG,2021,"7,4","15,2","28,3","34,1","14,2","0,7",,"6,8","7,1",2405.0,"9,5","51,7","20,2","18,1","0,5","45,3","17,3","37,3",5767.0,101,EG,4.86567395,52.37904255
17,4231,4,Wijk,EH Staatsliedenbuurt,EH,2021,"19,2","39,3","20,5","14,4","6,3","0,3",,"6,8","7,5",16546.0,"7,4","59,5","21,3","11,1","0,7","46,4","25,3","28,3",6487.0,102,EH,4.875206,52.3808103
18,4232,4,Wijk,EJ Frederik Hendrikbuurt,EJ,2021,"13,5","46,7","22,3","10,7","6,7","0,1",,"6,6","7,5",14340.0,"5,5","62,1","22,2","9,4","0,8","36,1",34,"29,9",6649.0,104,EJ,4.873115,52.37675945
19,4233,4,Wijk,EK Van Galenbuurt,EK,2021,2,"78,6","11,9","4,2","3,3",0,,"6,2","7,1",11212.0,"8,5","69,9",14,"6,9","0,7",49,"29,6","21,5",6138.0,105,EK,4.8495595,52.3719726
20,4234,4,Wijk,EL Geuzenbuurt,EL,2021,"4,4","55,7","25,7","7,6","6,5","0,1",,"6,5","7,7",13419.0,"5,7","54,2","26,1","12,4","1,5","19,7","47,4",33,6387.0,106,EL,4.8614025,52.37277565
21,4235,4,Wijk,EM Hoofdweg e.o.,EM,2021,2,"75,2","12,9","5,9",4,0,,"6,1","7,4",14514.0,"7,1","55,6","23,7","12,3","1,2","38,7","39,6","21,7",6366.0,107,EM,4.8533061,52.36724645
22,4236,4,Wijk,EN ChassÃƒÂ©buurt,EN,2021,"1,7","29,1","47,8","10,8","10,6",0,,"6,3","7,8",11753.0,"8,8","47,7","23,5","18,4","1,7","40,9","33,3","25,8",6085.0,108,EN,4.86079195,52.36759385
23,4237,4,Wijk,EP Bellamybuurt,EP,2021,11,"45,5","25,3",10,"8,1","0,2",,"7,2","7,7",15162.0,"5,7","60,9","22,6","9,7","1,1",36,"40,8","23,2",6854.0,109,EP,4.8654401,52.36809885
24,4238,4,Wijk,EQ Da Costabuurt,EQ,2021,"8,5","25,1","42,2","13,1",11,"0,1",,"7,1","7,3",12430.0,"5,8","56,6","26,7","9,4","1,5","22,2","47,2","30,5",6888.0,0,EQ,4.8721073,52.37013015
25,4239,4,Wijk,ER Westindische Buurt,ER,2021,"0,2",56,"28,1","7,5","8,2","0,1",,"6,4","7,7",11428.0,"6,7","48,7","29,3","13,8","1,4","16,9","52,4","30,7",6603.0,1,ER,4.8540622,52.36100675
26,4240,4,Wijk,ES Van Lennepbuurt,ES,2021,"19,5","39,3","26,1","10,3","4,6","0,2",,"7,2","7,5",17668.0,"6,5","64,3","19,6","8,6","0,9","51,2",26,"22,8",6717.0,13,ES,4.8674871,52.3650266
27,4241,4,Wijk,ET Overtoomse Sluis,ET,2021,"7,2","43,7","24,9","11,4","12,5","0,4",,"6,9","7,6",15520.0,"5,4","56,8","25,3","11,2","1,3","20,1","47,3","32,5",7282.0,18,ET,4.8598311,52.35973835
28,4242,4,Wijk,EU Helmersbuurt,EU,2021,"6,4","33,9","27,8","10,2","21,1","0,6",,"7,8","7,6",13158.0,"5,3","57,1","24,1","12,3","1,1","26,7","40,7","32,6",7313.0,19,EU,4.8715505,52.3635334
29,4243,4,Wijk,EV Vondelparkbuurt,EV,2021,"5,1","18,8","16,4","12,6",46,"1,2",,"8,3","7,3",4366.0,"6,2","52,4","25,4","14,6","1,4","16,2","44,7","39,1",7406.0,20,EV,4.87339625,52.3615828
30,4244,4,Wijk,FA Sloterdijk Nieuw-West,FA,2021,"88,5","5,3","0,8","0,8","3,6","1,1",,,,92.0,"0,6","83,4","14,5","0,9","0,7",,"99,4",,5671.0,65,FA,4.80115165,52.39220185
31,4247,4,Wijk,FD Slotermeer-Noordoost,FD,2021,"6,8","46,6","28,7","10,8","7,2","0,1",,5,7,4350.0,"9,7","48,8",17,"22,9","1,6","64,2",9,"26,8",4103.0,69,FD,4.8290986,52.380685
32,4249,4,Wijk,FF Lutkemeer/Ookmeer,FF,2021,"0,6","5,2",12,"9,7","70,6","1,9",,,,60.0,"8,5","54,9","19,4","16,4","0,8","4,5","29,1","66,3",4346.0,71,FF,4.7811914,52.3663398
33,4250,4,Wijk,FG De Aker,FG,2021,"0,2",1,"19,8","28,2","50,8","0,1",,"5,3","7,2",3640.0,10,32,"22,7","34,3",1,"29,4",16,"54,6",3765.0,72,FG,4.7814874,52.34943735
34,4251,4,Wijk,FH De Punt,FH,2021,"7,5","27,8","26,4","24,8","13,4","0,1",,"5,6","7,1",4595.0,8,"50,1","17,5","22,8","1,7","36,8","21,4","41,8",3284.0,73,FH,4.7843972,52.3576807
35,4252,4,Wijk,FJ Osdorp-Midden,FJ,2021,"2,6",11,"33,9","30,8","21,3","0,4",,6,"7,2",6263.0,11,"43,4","18,3","25,5","1,8","59,3","13,9","26,8",3430.0,85,FJ,4.7951324,52.35534825
36,4253,4,Wijk,FK Osdorp-Oost,FK,2021,"3,6","25,1","35,1","21,6","14,4","0,3",,"6,5","7,2",5317.0,"8,7","52,9","20,5","16,9","0,9","54,5","18,5",27,3545.0,86,FK,4.80788145,52.3584471
37,4254,4,Wijk,FL Slotervaart-Noord,FL,2021,"4,4","16,4",34,"22,7","22,4","0,1",,"5,8","7,3",3047.0,"11,1","43,1","21,3","23,4","1,2","44,2",24,"31,8",4172.0,87,FL,4.82330125,52.3648658
38,4255,4,Wijk,FM Overtoomse Veld,FM,2021,11,"18,4","27,2","24,6","18,6","0,2",,"4,8",7,4179.0,"6,9",52,"21,1","18,8","1,2",38,"42,5","19,5",4425.0,88,FM,4.84217435,52.36552265
39,4256,4,Wijk,FN Slotervaart-Zuid,FN,2021,"11,6","16,1","35,3","20,3","14,3","2,4",,"5,3","6,7",4066.0,"9,6","54,1","17,7","17,3","1,3","68,9","12,7","18,4",4263.0,22,FN,4.8262398,52.35126435
40,4257,4,Wijk,FP Westlandgracht,FP,2021,"30,5","14,7",22,"21,7",11,"0,1",,"4,9","6,9",4945.0,"4,6",64,"20,4","9,8","1,2","32,5","51,9","15,6",4676.0,25,FP,4.8415109,52.34778785
41,4258,4,Wijk,FQ Sloten/Nieuw-Sloten,FQ,2021,"1,3","1,5","9,7","43,7","43,6","0,2",,"5,2","7,7",1253.0,9,"33,6","27,9","28,5","0,9","19,5","27,7","52,8",4043.0,26,FQ,4.81912355,52.3393372
42,4259,4,Wijk,KA Hoofddorppleinbuurt,KA,2021,"2,8","58,3","20,9","6,5","11,4",0,,"5,9","7,4",7719.0,"6,5","52,7","26,8","12,8","1,3","12,5","51,8","35,7",6467.0,43,KA,4.848138,52.3480818
43,4260,4,Wijk,KB Schinkelbuurt,KB,2021,"4,2",53,"24,9","9,3","8,3","0,1",,"6,6","6,9",8226.0,"6,7","60,4","23,8","7,9","1,3","32,6",43,"24,4",6800.0,2,KB,4.852877,52.34964535
44,4261,4,Wijk,KC Willemspark,KC,2021,"1,6","6,3","25,3","12,5","54,3",0,,"7,6","7,8",4213.0,"7,1","41,2","25,1","25,5","1,1","9,7","44,5","45,8",7391.0,3,KC,4.86279635,52.35437115
45,4262,4,Wijk,KD Museumkwartier,KD,2021,"5,4","11,4","17,2",15,"50,8","0,2",,"8,6","8,2",5265.0,"5,6","50,7","25,1","17,5","1,2","4,1",59,"36,9",7521.0,4,KD,4.87646435,52.3552648
46,4263,4,Wijk,KE Oude Pijp,KE,2021,"18,1","34,8","25,6",10,"11,4","0,1",,"7,4","7,4",15135.0,5,62,"23,9","7,6","1,5","26,2",51,"22,8",7128.0,5,KE,4.89627025,52.35623165
47,4264,4,Wijk,KF Nieuwe Pijp,KF,2021,"11,3","46,7","24,3","9,7","7,8","0,2",,"7,4","7,5",15209.0,"5,6","60,9","23,8","8,7",1,30,45,25,6892.0,6,KF,4.8973224,52.3520907
48,4265,4,Wijk,KG Zuid Pijp,KG,2021,"2,5","51,8",34,"8,6",3,0,,"6,8","7,2",13109.0,"10,8","58,2","19,1",11,1,"69,2","17,4","13,4",6509.0,66,KG,4.90280345,52.35067815
49,4266,4,Wijk,KH Stadionbuurt,KH,2021,"1,4",41,"34,3","12,5","10,8",0,,"6,3","7,7",6942.0,"9,6","53,2","22,6","13,7","0,8",48,36,"16,1",6688.0,8,KH,4.8574755,52.34445665
50,4267,4,Wijk,KJ Apollobuurt,KJ,2021,"1,4",2,"5,6","9,5","81,5","0,1",,"6,9","8,3",4430.0,"6,5","39,1","24,1",29,"1,3","1,6","46,8","51,6",7317.0,9,KJ,4.87579195,52.34809945
51,4268,4,Wijk,KK Scheldebuurt,KK,2021,"4,7","10,8","33,9","29,6","20,8","0,1",,"6,2","7,8",7955.0,"6,9","47,8","27,1","16,5","1,7","16,3","56,1","27,5",6366.0,10,KK,4.8961454,52.341527
52,4269,4,Wijk,KL IJselbuurt,KL,2021,"1,2","31,5","52,3","8,4","6,5","0,1",,6,"7,1",11783.0,"7,3","55,6","25,2","10,5","1,3","43,8","40,6","15,6",6168.0,11,KL,4.90391425,52.3480695
53,4270,4,Wijk,KM Rijnbuurt,KM,2021,"0,8",60,"21,4","10,6","7,3",0,,"5,8","7,4",5527.0,"7,4","57,6","23,9","9,9","1,2","38,3","41,5","20,2",6336.0,12,KM,4.9038287,52.3400648
54,4271,4,Wijk,KN Prinses Irenebuurt e.o.,KN,2021,0,"6,9","4,5","24,8","62,6","1,2",,"6,5","7,9",1821.0,"5,1","43,6","24,1","26,4","0,9",,29,71,6476.0,14,KN,4.875265,52.34370745
55,4272,4,Wijk,KP Zuidas,KP,2021,"33,3",6,"17,4","20,2","23,1",0,,"5,5","6,8",1209.0,"3,4","64,2","21,4","10,6","0,4","4,7","77,3","18,1",6548.0,15,KP,4.87475785,52.33829205
56,4273,4,Wijk,KQ Buitenveldert-West,KQ,2021,"6,1","11,2","41,2","15,8","25,3","0,5",,"5,9","7,6",2668.0,"5,6",54,"22,8","16,3","1,3",25,"37,3","37,7",5080.0,16,KQ,4.84837205,52.33015895
57,4274,4,Wijk,KR Buitenveldert-Oost,KR,2021,"12,6","5,9","39,6","17,2","24,4","0,3",,"5,7","7,2",3045.0,"6,6","57,4",22,"13,2","0,9","27,9","40,7","31,4",4967.0,17,KR,4.88851085,52.32913525
58,4275,4,Wijk,MA Oostelijk Havengebied,MA,2021,"1,5","6,9","20,9","35,5",35,"0,2",,"6,1","7,5",6076.0,"9,5","43,8","26,6","19,5","0,7","31,3","29,9","38,9",5117.0,27,MA,4.9336513,52.3745605
59,4276,4,Wijk,MB Weesperzijde,MB,2021,"9,5","29,9","24,4","15,7","20,2","0,3",,"6,7","7,7",8272.0,"4,9","54,8","26,1","12,9","1,3","26,1","38,1","35,8",6463.0,28,MB,4.9105667,52.35435315
60,4277,4,Wijk,MC Oosterparkbuurt,MC,2021,"10,3","36,1","28,4","15,3","9,6","0,4",,"6,9","7,4",8626.0,"7,3","58,7","21,3","11,7",1,"56,2","19,7","24,1",6250.0,29,MC,4.9175089,52.35904
61,4278,4,Wijk,MD Transvaalbuurt,MD,2021,"4,7","38,2","34,3","15,3","7,5",0,,"6,4","7,4",12802.0,"9,5","52,4","21,8","14,8","1,5","58,7","18,5","22,9",6061.0,30,MD,4.9213968,52.35394625
62,4279,4,Wijk,ME Dapperbuurt,ME,2021,"14,6","25,8","33,3","14,8","11,4","0,2",,7,"7,4",9332.0,"7,6","58,3","20,4","12,7","1,1","56,3","18,7","24,9",6127.0,74,ME,4.9298721,52.36095465
63,4280,4,Wijk,MF Indische Buurt-West,MF,2021,"7,7","41,6","27,7","15,1","7,6","0,3",,"6,9","7,4",14330.0,"8,2","53,7","22,6","14,2","1,3","53,7",20,"26,4",5898.0,31,MF,4.9360817,52.3621942
64,4281,4,Wijk,MG Indische Buurt-Oost,MG,2021,5,33,"30,7","24,3",7,0,,"6,4","7,3",5488.0,"9,1","53,3","20,6","15,9","1,1","65,4","13,6",21,5555.0,32,MG,4.95038715,52.363115
65,4282,4,Wijk,MH Zeeburgereiland/Bovendiep,MH,2021,"31,4","9,1","31,2","14,9","12,3",1,,"3,2","6,6",1218.0,"7,1","57,4","22,5","11,9",1,"37,1","43,6","19,3",4264.0,33,MH,4.9826381,52.36209375
66,4283,4,Wijk,MJ IJburg-West,MJ,2021,4,"5,1","9,4","29,1","52,4",0,,"4,7","7,8",5644.0,"13,3","33,3","18,4","34,3","0,7","31,4","22,7",46,4399.0,34,MJ,4.98973895,52.35968475
67,4285,4,Wijk,ML IJburg-Zuid,ML,2021,"3,6","3,2","8,8","35,8","48,7",0,,"4,7","8,2",4765.0,"13,9",33,"14,7","37,8","0,7","33,3","22,4","44,3",4509.0,36,ML,5.00638825,52.3497225
68,4286,4,Wijk,MM Frankendael,MM,2021,"22,7","30,1","22,1","12,3","12,8","0,1",,"5,9","7,2",3957.0,"7,2","61,6","18,4","12,3","0,6","49,4","34,2","16,4",5837.0,37,MM,4.92620945,52.34757445
69,4287,4,Wijk,MN Middenmeer,MN,2021,"20,9","5,2","24,5","21,6","27,7","0,1",,"6,1","7,7",2924.0,"5,8","50,6","22,5","19,7","1,4","32,7","30,8","36,4",5762.0,38,MN,4.94897385,52.3496457
70,4288,4,Wijk,MP Betondorp,MP,2021,"7,7",34,49,"6,5","2,9",0,,"4,5","4,7",1840.0,"10,9","57,9","19,6","11,1","0,5","79,5","3,7","16,8",5664.0,39,MP,4.93993925,52.3421535
71,4289,4,Wijk,MQ Omval/Overamstel,MQ,2021,"53,1","10,9","11,3","11,9","12,9",0,,"4,7","6,7",1441.0,"1,9","63,8","25,4","8,4","0,5","2,7",83,"14,3",6670.0,40,MQ,4.91891395,52.33237885
72,4290,4,Wijk,NB Noordelijke IJ-oevers-West,NB,2021,29,"23,7","13,7","15,2","18,3","0,1",,"6,3","6,3",1311.0,"3,3","62,8","22,1","11,4","0,4","20,5","61,2","18,3",4749.0,50,NB,4.88828365,52.40021275
73,4291,4,Wijk,NC Tuindorp Oostzaan,NC,2021,"6,1","29,6","33,5","15,1","15,7",0,,"5,2","7,2",3435.0,"11,8","42,8","20,9","23,8","0,7",64,"4,3","31,7",4328.0,51,NC,4.89119195,52.41028075
74,4292,4,Wijk,ND Kadoelen,ND,2021,"1,1","6,9","26,1","32,9",33,0,,"4,9","7,2",1023.0,"10,2","25,9","25,8","37,5","0,6","30,8","4,4","64,8",4683.0,52,ND,4.90915285,52.4161941
75,4293,4,Wijk,NE Banne Buiksloot,NE,2021,"1,7","15,7","34,7","32,4","15,2","0,3",,"5,1","7,3",3809.0,"12,1","43,7","19,3","23,9",1,"60,9","9,3","29,8",3646.0,53,NE,4.9165661,52.4079328
76,4294,4,Wijk,NF Nieuwendammerdijk/Buiksloterdijk,NF,2021,"2,1",6,"17,1","21,7","52,2","0,8",,"5,9","7,5",1791.0,"5,8",24,"29,2",40,"0,9",,"8,6","91,1",5496.0,54,NF,4.93357905,52.39356785
77,4295,4,Wijk,NG Elzenhagen,NG,2021,"28,6","5,8","15,1","11,6","38,9",0,,"4,8","7,3",2440.0,"5,7","50,5","15,3","28,1","0,4",51,"15,6","33,4",3460.0,55,NG,4.9307624,52.40331505
78,4296,4,Wijk,NH Buikslotermeer,NH,2021,"1,5","14,8","43,3","30,8","9,3","0,3",,"5,6","7,3",3613.0,"9,9","53,8","20,8","14,1","1,4",59,"11,5","29,5",3491.0,56,NH,4.9381749,52.40017325
79,4297,4,Wijk,NJ Waterlandpleinbuurt,NJ,2021,"3,3","12,8","47,4","21,6","14,4","0,4",,"4,9","7,4",4121.0,14,"43,2","18,5","23,3",1,"50,8",18,"31,3",3680.0,57,NJ,4.95389985,52.39455385
80,4298,4,Wijk,NK Volewijck,NK,2021,"5,6","45,8","31,2","13,2","4,2","0,1",,"5,9","7,1",4149.0,"14,4","50,5","17,1","17,2","0,9","79,6","7,2","13,2",4589.0,58,NK,4.9111678,52.39107185
81,4299,4,Wijk,NL IJplein/Vogelbuurt,NL,2021,"7,1","35,4",27,"22,9","7,5","0,1",,"5,9","6,9",3544.0,"11,4",54,"18,5",15,"1,1","72,5","8,3","19,2",4812.0,59,NL,4.92086315,52.38946545
82,4300,4,Wijk,NM Tuindorp Buiksloot,NM,2021,"4,3","43,3","45,1","4,5","2,9",0,,"5,6","7,2",5412.0,"15,4","42,6","21,4","19,2","1,4","79,7","1,9","18,4",4918.0,60,NM,4.92907435,52.3932217
83,4301,4,Wijk,NN Tuindorp Nieuwendam,NN,2021,"5,8",60,"28,9","3,7","1,6","0,1",,"5,1","6,9",4319.0,"12,8","46,8","22,4","17,8","0,3","78,3","1,6","20,1",5399.0,61,NN,4.94372485,52.39066235
84,4302,4,Wijk,NP Noordelijke IJ-oevers-Oost,NP,2021,"60,9","1,5","12,2","10,7","14,2","0,5",,,,287.0,"1,8","68,4","23,4","5,3","1,2",,"87,8","12,2",5556.0,62,NP,4.9356245,52.38420895
85,4303,4,Wijk,NQ Waterland,NQ,2021,"3,5","9,7","17,9","17,5","50,5","0,9",,"3,8","6,8",37.0,"7,1","34,7","25,3","32,1","0,8","3,9","18,3","77,8",5971.0,63,NQ,5.0044116,52.39749585
86,4304,4,Wijk,SA Driemond,SA,2021,"0,9","8,3","44,1","27,1","19,5","0,1",,3,8,392.0,"10,3","28,6","28,4","32,7",0,"37,8","5,3",60,3737.0,64,SA,5.0088323,52.31348545
87,4305,4,Wijk,TA Amstel III/Bullewijk,TA,2021,"89,4","6,8",1,"0,3","2,3","0,3",,,,82.0,"0,3","92,1","6,7","0,6","0,4",,"98,5",,4165.0,103,TA,4.9505866,52.29875535
88,4306,4,Wijk,TB Venserpolder,TB,2021,"11,2","31,2","36,2","13,8","7,6",0,,"5,5","6,7",5939.0,"13,9","60,3","14,6","9,7","1,5","60,6","14,2","25,2",3469.0,7,TB,4.94524345,52.3215816
89,4308,4,Wijk,TD H-buurt,TD,2021,"14,7","8,6","26,1","42,5","7,9","0,2",,"6,3","7,2",4802.0,"18,8","56,1","13,1","10,4","1,6","66,9","23,4","9,7",3138.0,76,TD,4.95644015,52.3082972
90,4309,4,Wijk,TE Ganzenhoef e.o.,TE,2021,"6,9","13,8",7,"34,5","37,7","0,1",,"5,9",7,3957.0,"17,7",48,"14,1","18,4","1,7","51,3","20,4","28,3",3121.0,77,TE,4.9672283,52.322178
91,4310,4,Wijk,TF Geerdinkhof/Kantershof,TF,2021,"0,2","14,9","22,4","23,5","38,7","0,3",,"5,7","7,7",2306.0,"8,8","53,7","20,6","15,5","1,4","29,8","13,4","56,8",2979.0,78,TF,4.98368765,52.32263805
92,4313,4,Wijk,TJ Holendrecht,TJ,2021,"0,6","13,4","26,3","45,8","13,1","0,8",,"5,9","7,6",3225.0,"22,4","45,8",15,"15,8",1,"75,4","5,4","19,1",3010.0,81,TJ,4.9670607,52.30116005
93,4314,4,Wijk,TK Nellestein,TK,2021,0,"8,8","43,6",35,"11,9","0,7",,"4,2","7,6",784.0,"9,3","55,9","22,8","11,3","0,8","18,9","39,3","40,5",2978.0,82,TK,4.99284355,52.3095795
94,4315,4,Wijk,TL Reigersbos,TL,2021,"4,9","15,3","35,4","32,4","11,7","0,3",,"5,4","7,5",3228.0,"14,7",52,"16,9","15,2","1,2","55,7","10,1","34,3",3179.0,83,TL,4.9726632,52.2929851
95,4316,4,Wijk,TM Gein,TM,2021,"6,2",11,"43,4",31,"8,4",0,,"5,4","7,7",2827.0,"15,8","44,7",20,"18,4","1,1","45,2","14,6","40,2",3123.0,84,TM,4.9939257,52.295524
96,5094,4,Wijk,AA Haarlemmerbuurt,AA,2020,"10,4",29,"25,3","15,5","18,8",1,69.0,,,10556.0,"6,4","59,3","22,8","10,8","0,7","41,8","30,5","27,7",6792.0,21,AA,4.89021995,52.3837291
97,5095,4,Wijk,AB Jordaan,AB,2020,19,"36,9","22,8","9,5","10,9","0,8",81.0,,,15844.0,"5,2","65,2","20,8","7,9",1,"36,7","38,6","24,7",7131.0,23,AB,4.8814382,52.3745526
98,5096,4,Wijk,AC Grachtengordel-West,AC,2020,"9,4","20,1","17,3",13,38,"2,1",45.0,,,9621.0,"3,5","59,4","26,4","9,2","1,5","10,6","52,2","37,2",7761.0,24,AC,4.888214,52.37334925
99,5097,4,Wijk,AD Burgwallen-Nieuwe Zijde,AD,2020,"18,5","28,4","21,8","13,1","14,5","3,7",88.0,,,5282.0,"2,6","64,7",26,"4,3","2,4","9,8","73,1","17,1",6945.0,41,AD,4.8971187,52.3749354
100,5098,4,Wijk,AE Burgwallen-Oude Zijde,AE,2020,"14,7","31,8","20,4","12,7","17,2","3,3",125.0,,,8524.0,"3,6","65,1","24,7","4,3","2,3",19,"64,3","16,8",6443.0,42,AE,4.8976341,52.37229515
101,5099,4,Wijk,AF Nieuwmarkt/Lastage,AF,2020,"9,2","28,9","23,5","17,3","16,5","4,5",72.0,,,8952.0,"5,3","63,6","21,9","7,9","1,3","38,1","33,9",28,6337.0,44,AF,4.904438,52.37291
102,5100,4,Wijk,AG Grachtengordel-Zuid,AG,2020,"9,8","19,6","19,2","14,9","34,9","1,7",66.0,,,6708.0,"3,5","58,2","26,3","10,4","1,5","5,3",60,"34,7",7562.0,45,AG,4.8927838,52.3650518
103,5101,4,Wijk,AH De Weteringschans,AH,2020,"15,6",28,"20,1","11,2","23,9","1,1",65.0,,,8402.0,4,"58,9","25,4","10,5","1,3","11,5","53,3","35,3",7141.0,46,AH,4.89192575,52.36205585
104,5102,4,Wijk,AJ Weesperbuurt/Plantage,AJ,2020,13,"27,7","26,7","10,1","21,6","0,9",68.0,,,5601.0,"4,2","64,9","21,3","8,7",1,"29,1","38,1","32,9",6772.0,47,AJ,4.91176485,52.3644559
105,5103,4,Wijk,AK Oostelijke Eilanden/Kadijken,AK,2020,13,"21,3","29,1","22,9","13,2","0,5",80.0,,,7361.0,"7,2","60,1","19,9","11,9","0,9","57,2","13,6","29,2",5831.0,48,AK,4.9218291,52.37072065
106,5104,4,Wijk,EA Sloterdijk-West,EA,2020,"2,1",16,"46,1","19,3",16,"0,4",85.0,,,204.0,"2,6","43,1",39,"14,5","0,7","4,5","87,2","8,2",5959.0,95,EA,4.85453985,52.39031575
107,5105,4,Wijk,EB Spaarndammerbuurt/Zeeheldenbuurt,EB,2020,11,"44,8",22,"15,2","6,5","0,4",70.0,,,4552.0,"9,2","58,5","19,1",12,"1,1","61,7","16,1","22,1",6232.0,96,EB,4.8744225,52.39042765
108,5106,4,Wijk,EC Houthavens,EC,2020,"3,9","13,5",20,"18,4","44,1","0,1",70.0,,,4107.0,5,"43,3","27,2","23,9","0,6","12,7","42,4","44,9",6369.0,97,EC,4.8803174,52.3937846
109,5107,4,Wijk,ED De Kolenkit,ED,2020,"22,6","26,5","17,1","21,2","12,6",0,67.0,,,7853.0,"7,3","54,2","18,6","18,6","1,2","56,8","26,9","16,3",5016.0,98,ED,4.8413775,52.37864745
110,5108,4,Wijk,EE Landlust,EE,2020,"3,7","60,7","23,5","6,3","5,7","0,1",85.0,,,9459.0,"8,2",52,"22,8","15,5","1,5","42,1","29,7","28,1",5728.0,99,EE,4.85425375,52.3798758
111,5109,4,Wijk,EF Erasmuspark,EF,2020,"2,8","66,4","18,5",8,"4,3",0,77.0,,,8521.0,"6,9","50,2","27,9","12,9","2,1","14,2","41,2","44,6",5783.0,100,EF,4.85118035,52.3762431
112,5110,4,Wijk,EG Centrale Markt,EG,2020,"7,4","15,3","28,4","34,1","14,1","0,7",75.0,,,2403.0,"10,1","50,9","19,8","18,4","0,8","45,3","16,5","38,2",5782.0,101,EG,4.86567395,52.37904255
113,5111,4,Wijk,EH Staatsliedenbuurt,EH,2020,"19,4","39,3","20,4","14,2","6,2","0,4",69.0,,,16538.0,"7,1","59,5","20,9","11,7","0,8","46,5","23,9","29,6",6451.0,102,EH,4.875206,52.3808103
114,5112,4,Wijk,EJ Frederik Hendrikbuurt,EJ,2020,"13,5","46,8","22,4","10,6","6,5","0,2",75.0,,,14331.0,"5,7","61,5","21,8","9,7","1,2","36,4","34,5","29,2",6549.0,104,EJ,4.873115,52.37675945
115,5113,4,Wijk,EK Van Galenbuurt,EK,2020,"2,1","78,6","11,7","4,2","3,3",0,66.0,,,11197.0,"9,2","66,8","15,2",8,"0,9","49,3","28,3","22,4",6083.0,105,EK,4.8495595,52.3719726
116,5114,4,Wijk,EL Geuzenbuurt,EL,2020,"4,4","55,9","25,6","7,6","6,4","0,1",81.0,,,13402.0,"5,4","53,2","26,5","12,9",2,"19,6","45,3","35,1",6244.0,106,EL,4.8614025,52.37277565
117,5115,4,Wijk,EM Hoofdweg e.o.,EM,2020,2,"75,4","12,8","5,9","3,9",0,76.0,,,14505.0,"7,2","56,1",23,"12,2","1,5","38,8","37,9","23,3",6239.0,107,EM,4.8533061,52.36724645
118,5116,4,Wijk,EN ChassÃƒÂ©buurt,EN,2020,"1,5","29,2","48,1","10,7","10,4","0,1",65.0,,,11721.0,"9,2","46,8",24,"18,1","1,9","41,2","31,7","27,1",5916.0,108,EN,4.86079195,52.36759385
119,5117,4,Wijk,EP Bellamybuurt,EP,2020,"10,8","45,7","25,3","10,1",8,"0,2",81.0,,,15084.0,"5,9","61,1","21,7","9,9","1,4","36,2","39,3","24,4",6709.0,109,EP,4.8654401,52.36809885
120,5118,4,Wijk,EQ Da Costabuurt,EQ,2020,"8,3","25,1","42,4","13,2","10,8","0,1",111.0,,,12395.0,6,"57,6","24,9","9,7","1,7","22,3","45,8","31,9",6707.0,0,EQ,4.8721073,52.37013015
121,5119,4,Wijk,ER Westindische Buurt,ER,2020,"0,2","56,5",28,"7,3","7,9","0,1",77.0,,,11425.0,"7,4","47,6","28,4","14,3","2,4",17,51,32,6432.0,1,ER,4.8540622,52.36100675
122,5120,4,Wijk,ES Van Lennepbuurt,ES,2020,"19,5","39,3",26,"10,3","4,6","0,2",73.0,,,17626.0,"6,6","63,8","19,6",9,1,"50,2","26,8","22,9",6554.0,13,ES,4.8674871,52.3650266
123,5121,4,Wijk,ET Overtoomse Sluis,ET,2020,"7,2","43,9","24,7","11,3","12,4","0,6",61.0,,,15536.0,"5,5",56,"25,5","11,5","1,6","20,2","45,7","34,1",7082.0,18,ET,4.8598311,52.35973835
124,5122,4,Wijk,EU Helmersbuurt,EU,2020,"4,6","34,6","28,3","10,3","21,5","0,7",78.0,,,12855.0,"5,7","56,5","23,9","12,5","1,4","25,3","41,9","32,9",7133.0,19,EU,4.8715505,52.3635334
125,5123,4,Wijk,EV Vondelparkbuurt,EV,2020,"5,2","18,2","15,8","12,7","45,7","2,3",78.0,,,4353.0,"6,7","53,8","22,8","15,3","1,4","16,2","44,3","39,4",7527.0,20,EV,4.87339625,52.3615828
126,5124,4,Wijk,FA Sloterdijk Nieuw-West,FA,2020,"87,3","6,3","0,8","0,9","3,6","1,1",,,,92.0,"0,4","79,9","17,3","1,2","1,2",,"99,7",,5783.0,65,FA,4.80115165,52.39220185
127,5125,4,Wijk,FD Slotermeer-Noordoost,FD,2020,"6,7","46,6","28,8","10,8","6,9","0,1",109.0,,,4349.0,"10,1","47,9","17,6","22,7","1,7","64,1","7,6","28,3",3948.0,69,FD,4.8290986,52.380685
128,5126,4,Wijk,FF Lutkemeer/Ookmeer,FF,2020,"0,6","4,9",12,"9,7","69,8","2,9",69.0,,,60.0,8,"52,8","19,8","18,1","1,3","4,5","27,3","68,2",4316.0,71,FF,4.7811914,52.3663398
129,5127,4,Wijk,FG De Aker,FG,2020,0,1,"19,9","28,3","50,7","0,1",69.0,,,3633.0,"9,9","31,3","22,8","34,9","1,1","29,5","14,1","56,4",3655.0,72,FG,4.7814874,52.34943735
130,5128,4,Wijk,FH De Punt,FH,2020,"7,5","27,7","26,4","24,9","13,3","0,1",92.0,,,4596.0,"8,1","50,3","17,5","22,7","1,4","37,2","20,5","42,3",3248.0,73,FH,4.7843972,52.3576807
131,5129,4,Wijk,FJ Osdorp-Midden,FJ,2020,"2,6","12,3","33,6","30,3","20,9","0,4",92.0,,,6379.0,"10,9","43,2","18,9","25,6","1,4","57,4","14,6","28,1",3461.0,85,FJ,4.7951324,52.35534825
132,5130,4,Wijk,FK Osdorp-Oost,FK,2020,"3,5","21,3","40,5","19,2","15,1","0,4",112.0,,,5045.0,"8,9","51,6","20,4",18,"1,1","57,5","12,2","30,2",3498.0,86,FK,4.80788145,52.3584471
133,5131,4,Wijk,FL Slotervaart-Noord,FL,2020,"4,3","16,4","34,1","22,8","22,3","0,1",52.0,,,3046.0,"11,2","42,6","20,7","24,1","1,4","44,2","22,4","33,4",4063.0,87,FL,4.82330125,52.3648658
134,5132,4,Wijk,FM Overtoomse Veld,FM,2020,"11,3","18,6","26,6",25,"18,4","0,2",75.0,,,4070.0,"6,8",52,21,"18,8","1,5","39,2","41,7","19,1",4287.0,88,FM,4.84217435,52.36552265
135,5133,4,Wijk,FN Slotervaart-Zuid,FN,2020,"11,6",16,"35,5","20,3","14,2","2,4",56.0,,,4065.0,"9,2","55,1",18,"16,6",1,69,"11,8","19,2",4136.0,22,FN,4.8262398,52.35126435
136,5134,4,Wijk,FP Westlandgracht,FP,2020,"31,1","13,9","21,8","21,9","11,2","0,1",96.0,,,4734.0,"4,7","63,8","20,1","10,1","1,3",34,"49,2","16,8",4805.0,25,FP,4.8415109,52.34778785
137,5135,4,Wijk,FQ Sloten/Nieuw-Sloten,FQ,2020,"1,3","1,6","9,7","43,9","43,3","0,3",64.0,,,1251.0,"9,3","33,5","27,5","28,8","0,9","19,5","27,6","52,8",3882.0,26,FQ,4.81912355,52.3393372
138,5136,4,Wijk,KA Hoofddorppleinbuurt,KA,2020,"2,8",59,"20,5","6,6","11,1",0,74.0,,,7699.0,"6,6",53,"26,2","12,8","1,5","12,6","50,4",37,6446.0,43,KA,4.848138,52.3480818
139,5137,4,Wijk,KB Schinkelbuurt,KB,2020,"3,8","53,7","24,8","9,3","8,2","0,2",44.0,,,8144.0,"7,1","59,6","23,3","8,8","1,2",33,"40,8","26,3",6760.0,2,KB,4.852877,52.34964535
140,5138,4,Wijk,KC Willemspark,KC,2020,1,"6,4","25,1","12,5","54,9","0,1",75.0,,,4170.0,"7,2",41,25,"25,1","1,6","9,9","43,7","46,3",7512.0,3,KC,4.86279635,52.35437115
141,5139,4,Wijk,KD Museumkwartier,KD,2020,"5,4","11,4",17,15,"50,8","0,3",73.0,,,5228.0,"5,6",50,"25,2","18,1","1,2","4,2","58,4","37,5",7642.0,4,KD,4.87646435,52.3552648
142,5140,4,Wijk,KE Oude Pijp,KE,2020,"18,1","35,1","25,5","9,8","11,4","0,2",77.0,,,15021.0,"5,1","61,5","23,7","8,1","1,7","26,4",50,"23,7",7136.0,5,KE,4.89627025,52.35623165
143,5141,4,Wijk,KF Nieuwe Pijp,KF,2020,"11,3","46,9","24,2","9,6","7,8","0,3",61.0,,,15071.0,6,61,"22,7","9,2","1,1","30,5","43,3","26,2",6964.0,6,KF,4.8973224,52.3520907
144,5142,4,Wijk,KG Zuid Pijp,KG,2020,"2,5","51,9",34,"8,5",3,"0,1",74.0,,,13101.0,11,"57,2","19,5","11,4","1,1","69,3","16,6","14,1",6450.0,66,KG,4.90280345,52.35067815
145,5143,4,Wijk,KH Stadionbuurt,KH,2020,"1,4",41,"34,4","12,4","10,7",0,89.0,,,6928.0,10,"53,5","21,6","13,9",1,"48,4","34,6",17,6835.0,8,KH,4.8574755,52.34445665
146,5144,4,Wijk,KJ Apollobuurt,KJ,2020,"1,4",2,"5,4","9,5","81,7","0,1",68.0,,,4410.0,"6,2","39,6","24,2","28,8","1,2","1,6","46,3",52,7258.0,9,KJ,4.87579195,52.34809945
147,5145,4,Wijk,KK Scheldebuurt,KK,2020,"4,8","10,1","34,4","30,1","20,4","0,2",51.0,,,7816.0,"7,2","46,9","26,9","16,8","2,2","16,7","55,3",28,6303.0,10,KK,4.8961454,52.341527
148,5146,4,Wijk,KL IJselbuurt,KL,2020,"1,2","31,5","52,5","8,4","6,3","0,1",79.0,,,11764.0,"7,6","55,7","24,1","10,4","2,2",44,"39,9","16,1",6107.0,11,KL,4.90391425,52.3480695
149,5147,4,Wijk,KM Rijnbuurt,KM,2020,"0,7","60,3","21,2","10,6","7,2",0,32.0,,,5508.0,"7,9","56,9","23,6","10,1","1,5","38,5",41,"20,5",6324.0,12,KM,4.9038287,52.3400648
150,5148,4,Wijk,KN Prinses Irenebuurt e.o.,KN,2020,0,"7,1","4,5",25,"62,3","1,2",50.0,,,1827.0,"4,7",47,"23,1","24,3","0,9",,"24,2","75,8",6423.0,14,KN,4.875265,52.34370745
151,5149,4,Wijk,KP Zuidas,KP,2020,"33,2","6,1","17,4","20,2","23,1",0,50.0,,,1209.0,"3,1","66,9","19,5","10,1","0,4",,"85,8","14,1",6532.0,15,KP,4.87475785,52.33829205
152,5150,4,Wijk,KQ Buitenveldert-West,KQ,2020,"6,1","11,2","41,2",16,25,"0,5",46.0,,,2656.0,"5,8","54,3","22,7","15,8","1,3","25,2","33,9",41,5169.0,16,KQ,4.84837205,52.33015895
153,5151,4,Wijk,KR Buitenveldert-Oost,KR,2020,"12,6","5,9","39,7","17,3","24,2","0,3",49.0,,,3047.0,"6,4","57,3","22,3","13,1","0,9","27,9","38,1",34,5027.0,17,KR,4.88851085,52.32913525
154,5152,4,Wijk,MA Oostelijk Havengebied,MA,2020,"1,5","6,8",21,36,"34,4","0,3",67.0,,,6075.0,"9,6","43,9",26,"19,8","0,7","31,2","29,7","39,1",5141.0,27,MA,4.9336513,52.3745605
155,5153,4,Wijk,MB Weesperzijde,MB,2020,"9,5","30,1","24,2","15,7","20,1","0,4",97.0,,,8253.0,"5,4",55,26,"12,4","1,2","26,4","36,7","36,9",6518.0,28,MB,4.9105667,52.35435315
156,5154,4,Wijk,MC Oosterparkbuurt,MC,2020,"10,4","35,4","28,1","15,3","9,6","1,2",92.0,,,8600.0,"7,4","58,3","21,1",12,"1,2","55,8","19,7","24,5",6215.0,29,MC,4.9175089,52.35904
157,5155,4,Wijk,MD Transvaalbuurt,MD,2020,"4,7","38,3","34,1","15,4","7,4",0,75.0,,,12795.0,"9,6","52,8","20,8",15,"1,8","59,1","18,1","22,8",5961.0,30,MD,4.9213968,52.35394625
158,5156,4,Wijk,ME Dapperbuurt,ME,2020,"14,8","25,7","33,2","14,8","11,3","0,2",85.0,,,9324.0,"7,5","58,6",20,"12,7","1,1","56,6",19,"24,4",6079.0,74,ME,4.9298721,52.36095465
159,5157,4,Wijk,MF Indische Buurt-West,MF,2020,"7,7","41,7","27,7","15,1","7,5","0,4",79.0,,,14327.0,"7,7","53,9","22,4","14,8","1,2","53,8","19,8","26,4",5801.0,31,MF,4.9360817,52.3621942
160,5158,4,Wijk,MG Indische Buurt-Oost,MG,2020,5,"33,1","30,7","24,2","6,9",0,97.0,,,5492.0,"9,2","52,4","20,6","16,5","1,3",65,"13,4","21,5",5488.0,32,MG,4.95038715,52.363115
161,5159,4,Wijk,MH Zeeburgereiland/Bovendiep,MH,2020,"33,8","8,6","31,1","14,1","11,4","1,1",105.0,,,1141.0,"6,4","58,7","22,8",11,"1,1","37,9",46,"16,1",5145.0,33,MH,4.9826381,52.36209375
162,5160,4,Wijk,MJ IJburg-West,MJ,2020,"4,1","5,1","9,4","29,1","52,3",0,67.0,,,5615.0,"13,2","33,7","18,9","33,6","0,6","30,6","22,8","46,6",4449.0,34,MJ,4.98973895,52.35968475
163,5162,4,Wijk,ML IJburg-Zuid,ML,2020,"3,6","3,2","8,8",36,"48,4",0,65.0,,,4754.0,"13,6","32,9","15,2","37,7","0,6",33,"22,8","44,2",4525.0,36,ML,5.00638825,52.3497225
164,5163,4,Wijk,MM Frankendael,MM,2020,"22,7","30,1","22,1","12,4","12,6","0,1",68.0,,,3950.0,"6,9","61,8","18,1","12,6","0,6","49,5",34,"16,5",5656.0,37,MM,4.92620945,52.34757445
165,5164,4,Wijk,MN Middenmeer,MN,2020,"20,9","5,1","24,5","21,8","27,7","0,1",65.0,,,2917.0,6,"50,2","22,7","19,7","1,3","21,8","41,8","36,4",5539.0,38,MN,4.94897385,52.3496457
166,5165,4,Wijk,MP Betondorp,MP,2020,"7,7",34,49,"6,5","2,9",0,72.0,,,1840.0,"11,5","58,4","19,4","10,2","0,6",80,4,"15,9",5415.0,39,MP,4.93993925,52.3421535
167,5166,4,Wijk,MQ Omval/Overamstel,MQ,2020,"54,3",11,"11,3","11,6","11,7",0,103.0,,,1405.0,"1,9","66,7",24,"6,9","0,5","2,8","85,5","11,8",5375.0,40,MQ,4.91891395,52.33237885
168,5167,4,Wijk,NB Noordelijke IJ-oevers-West,NB,2020,"38,1","19,9","12,1","13,8",16,"0,1",82.0,,,1396.0,"3,3","59,8","24,2","12,4","0,3","27,6","57,9","14,5",4957.0,50,NB,4.88828365,52.40021275
169,5168,4,Wijk,NC Tuindorp Oostzaan,NC,2020,"6,1","29,7","37,9","10,6","15,6","0,1",58.0,,,3434.0,"11,9","42,2","21,2","23,9","0,8","64,1",5,"30,9",4245.0,51,NC,4.89119195,52.41028075
170,5169,4,Wijk,ND Kadoelen,ND,2020,"1,1","6,9","26,5","32,9","32,5",0,55.0,,,1022.0,"10,5","27,7","25,7","35,6","0,4","31,2","5,7","63,1",4524.0,52,ND,4.90915285,52.4161941
171,5170,4,Wijk,NE Banne Buiksloot,NE,2020,"1,5","14,9","34,6","33,7",15,"0,4",85.0,,,3680.0,"12,3","43,5","19,8","23,3",1,62,"7,7","30,2",3685.0,53,NE,4.9165661,52.4079328
172,5171,4,Wijk,NF Nieuwendammerdijk/Buiksloterdijk,NF,2020,"2,1","6,2",18,"22,4","50,6","0,8",28.0,,,1788.0,"5,7","25,9",27,"40,9","0,6",,"8,9","90,8",5208.0,54,NF,4.93357905,52.39356785
173,5172,4,Wijk,NG Elzenhagen,NG,2020,"33,3","0,2",8,"13,1","45,4",0,81.0,,,2053.0,"4,7","51,3","15,1","28,4","0,5","34,4","28,8","36,8",4064.0,55,NG,4.9307624,52.40331505
174,5173,4,Wijk,NH Buikslotermeer,NH,2020,"1,4","14,8","43,4","31,1","9,1","0,3",81.0,,,3612.0,10,"53,6",21,14,"1,4","56,3","13,2","30,5",3630.0,56,NH,4.9381749,52.40017325
175,5174,4,Wijk,NJ Waterlandpleinbuurt,NJ,2020,"3,5","12,1","47,5","22,5",14,"0,4",80.0,,,4023.0,"14,7","42,4","18,2","23,6","1,1","50,6","17,1","32,3",3747.0,57,NJ,4.95389985,52.39455385
176,5175,4,Wijk,NK Volewijck,NK,2020,"5,6",46,31,13,"4,2","0,2",94.0,,,4148.0,"14,3","50,6","17,7","16,6","0,9","79,7","7,9","12,4",4525.0,58,NK,4.9111678,52.39107185
177,5176,4,Wijk,NL IJplein/Vogelbuurt,NL,2020,"7,1","35,3",27,"22,9","7,5","0,2",73.0,,,3543.0,"11,8",53,"18,3","15,7","1,2","72,9","6,9","20,2",4920.0,59,NL,4.92086315,52.38946545
178,5177,4,Wijk,NM Tuindorp Buiksloot,NM,2020,"4,3","43,6","45,1","4,1",3,0,28.0,,,5407.0,"14,9","41,8","22,8","19,6",1,"79,9",2,"18,1",4722.0,60,NM,4.92907435,52.3932217
179,5178,4,Wijk,NN Tuindorp Nieuwendam,NN,2020,"5,8","60,3","28,8","3,6","1,5","0,1",28.0,,,4319.0,"13,6","45,4","23,2","17,5","0,4","78,7","2,4","18,9",5215.0,61,NN,4.94372485,52.39066235
180,5179,4,Wijk,NP Noordelijke IJ-oevers-Oost,NP,2020,"60,9","1,5","12,2","10,7","14,2","0,5",,,,288.0,"2,4","68,9","22,8","3,9","1,9",,"89,3","10,7",5582.0,62,NP,4.9356245,52.38420895
181,5180,4,Wijk,NQ Waterland,NQ,2020,"2,3","10,1","18,6","18,1","49,9","1,1",112.0,,,37.0,"6,4",34,"26,6","32,3","0,7",4,"15,2","80,9",5710.0,63,NQ,5.0044116,52.39749585
182,5181,4,Wijk,SA Driemond,SA,2020,"0,9","8,3","44,4","27,1","19,2","0,1",49.0,,,391.0,"10,4","29,3","27,7","32,6",0,"38,2","5,8","56,1",3606.0,64,SA,5.0088323,52.31348545
183,5182,4,Wijk,TA Amstel III/Bullewijk,TA,2020,"89,2","6,8",1,"0,3","2,5","0,3",,,,82.0,"0,6","90,2","6,8","1,7","0,7",,"98,5",,3564.0,103,TA,4.9505866,52.29875535
184,5183,4,Wijk,TB Venserpolder,TB,2020,"11,2","31,2","36,2","13,8","7,6",0,,,,5939.0,"14,5","59,4",14,"10,2","1,9","61,3","11,3","27,4",3420.0,7,TB,4.94524345,52.3215816
185,5184,4,Wijk,TD H-buurt,TD,2020,"14,6","8,8","26,1","42,3","8,1","0,2",,,,4806.0,19,"56,2","12,8","10,4","1,6","67,1","22,3","10,6",2816.0,76,TD,4.95644015,52.3082972
186,5185,4,Wijk,TE Ganzenhoef e.o.,TE,2020,"6,9","13,8",7,"34,5","37,6","0,2",,,,3957.0,"17,4","48,3","13,5","18,6","2,1","51,2","19,4","29,4",2937.0,77,TE,4.9672283,52.322178
187,5186,4,Wijk,TF Geerdinkhof/Kantershof,TF,2020,"0,2","14,9","22,4","23,7","38,5","0,3",,,,2305.0,"8,7","53,8","19,9","15,9","1,7","29,9","9,9","60,2",2796.0,78,TF,4.98368765,52.32263805
188,5187,4,Wijk,TJ Holendrecht,TJ,2020,"0,6","13,5","26,3","45,9",13,"0,8",,,,3224.0,"22,7","45,6","15,1","15,8","0,8","75,7","5,7","18,7",2952.0,81,TJ,4.9670607,52.30116005
189,5188,4,Wijk,TK Nellestein,TK,2020,0,"8,8","43,6",35,"11,9","0,7",80.0,,,788.0,"9,1","55,9","22,6","11,4","1,1",19,"36,6","44,4",2911.0,82,TK,4.99284355,52.3095795
190,5189,4,Wijk,TL Reigersbos,TL,2020,"4,9","15,3","35,5","32,4","11,6","0,3",,,,3228.0,"15,6","51,4","16,8","14,9","1,4","56,2",9,"34,9",3109.0,83,TL,4.9726632,52.2929851
191,5190,4,Wijk,TM Gein,TM,2020,"6,2","11,1","43,6","31,1","8,1",0,72.0,,,2827.0,16,"43,7","20,2","18,9","1,2","45,7",14,"40,3",3072.0,84,TM,4.9939257,52.295524
192,5943,4,Wijk,AA Haarlemmerbuurt,AA,2019,"10,5","29,1","25,3","15,3","18,8",1,56.0,"7,3","7,1",10556.0,"6,6","59,7","21,8",11,1,"42,1","30,4","27,4",6213.0,21,AA,4.89021995,52.3837291
193,5944,4,Wijk,AB Jordaan,AB,2019,"19,2","37,2","22,7","9,4","10,7","0,9",77.0,"7,8","7,4",15792.0,"5,2","65,3","20,3","8,1","1,1","36,9","37,4","25,7",6499.0,23,AB,4.8814382,52.3745526
194,5945,4,Wijk,AC Grachtengordel-West,AC,2019,"9,4","19,6","17,3",13,"37,6","3,1",53.0,"8,4","7,3",9634.0,"3,6","60,4","24,9","9,1","2,1","10,5","54,8","34,7",7339.0,24,AC,4.888214,52.37334925
195,5946,4,Wijk,AD Burgwallen-Nieuwe Zijde,AD,2019,"19,1","28,8","20,9","13,1","14,2","3,9",117.0,"8,1","5,4",5144.0,"2,9","64,1","26,2","4,4","2,4","10,1","70,8","19,1",6502.0,41,AD,4.8971187,52.3749354
196,5947,4,Wijk,AE Burgwallen-Oude Zijde,AE,2019,"15,2","31,7","20,3","12,9","16,6","3,4",102.0,8,"5,9",8372.0,"3,8","64,6","24,1","4,9","2,5","19,2","63,1","17,7",6030.0,42,AE,4.8976341,52.37229515
197,5948,4,Wijk,AF Nieuwmarkt/Lastage,AF,2019,"9,3","28,8","23,6","17,2","16,4","4,6",113.0,"8,1","7,4",8925.0,"5,4","63,3","22,2","7,8","1,4","40,1","32,9","27,1",5984.0,44,AF,4.904438,52.37291
198,5949,4,Wijk,AG Grachtengordel-Zuid,AG,2019,"9,7","19,7","19,1",15,"34,6","1,8",139.0,"8,6","6,4",6635.0,"3,8","58,4","25,6","10,2",2,"5,5","62,2","32,3",7145.0,45,AG,4.8927838,52.3650518
199,5950,4,Wijk,AH De Weteringschans,AH,2019,"15,8","28,3","19,9","11,1","23,7","1,2",115.0,"8,5","7,6",8342.0,"4,2","59,9","23,9","10,2","1,8","11,6","52,6","35,9",6635.0,46,AH,4.89192575,52.36205585
200,5951,4,Wijk,AJ Weesperbuurt/Plantage,AJ,2019,"13,1","27,8","26,7","9,9","21,5","0,9",86.0,8,"7,4",5579.0,"3,9","65,5","20,8","8,7",1,"29,9","35,5","34,6",6247.0,47,AJ,4.91176485,52.3644559
201,5952,4,Wijk,AK Oostelijke Eilanden/Kadijken,AK,2019,"13,2","21,8",29,"22,5","13,1","0,5",72.0,"6,7","7,4",7357.0,"7,5","58,2","20,9","12,3",1,"57,6","12,7","29,7",5334.0,48,AK,4.9218291,52.37072065
202,5953,4,Wijk,EA Sloterdijk-West,EA,2019,"1,7","16,2","46,6","19,7","15,4","0,4",95.0,,,197.0,"2,2","46,5",36,"13,1","2,2","4,7","86,8","8,5",6482.0,95,EA,4.85453985,52.39031575
203,5954,4,Wijk,EB Spaarndammerbuurt/Zeeheldenbuurt,EB,2019,11,"44,8","22,2",15,"6,5","0,4",68.0,"6,7","7,2",4551.0,"9,3","58,7","19,2","11,9","0,9","61,8","15,6","22,6",5525.0,96,EB,4.8744225,52.39042765
204,5955,4,Wijk,EC Houthavens,EC,2019,"4,6","14,4",20,"18,8","42,2","0,1",68.0,"6,2","7,6",3448.0,5,"45,8","27,8","20,8","0,6","12,3","39,8","47,9",5949.0,97,EC,4.8803174,52.3937846
205,5956,4,Wijk,ED De Kolenkit,ED,2019,"23,7","27,2","15,7","21,9","11,5",0,72.0,"5,7","6,8",7488.0,"8,1","53,8","17,4","19,2","1,5","57,7","25,2","17,1",4461.0,98,ED,4.8413775,52.37864745
206,5957,4,Wijk,EE Landlust,EE,2019,"3,6","62,2","23,5","5,6",5,"0,1",95.0,"6,5",7,9535.0,"8,2","52,6","22,1","15,7","1,5","41,9","29,5","28,6",5031.0,99,EE,4.85425375,52.3798758
207,5958,4,Wijk,EF Erasmuspark,EF,2019,"2,9",67,18,"7,9","4,1",0,89.0,"6,5",7,8487.0,"7,3","50,5","26,9",13,"2,3","14,7","39,8","45,4",5176.0,100,EF,4.85118035,52.3762431
208,5959,4,Wijk,EG Centrale Markt,EG,2019,"7,4","15,2","28,3","34,6","13,6","0,9",68.0,"7,1","7,7",2407.0,"10,1","50,6","18,9","19,4","1,1","45,5","15,9","38,6",5209.0,101,EG,4.86567395,52.37904255
209,5960,4,Wijk,EH Staatsliedenbuurt,EH,2019,"19,7","39,5","20,5","13,8","6,1","0,4",83.0,"7,1","7,3",16527.0,"7,1","59,5","20,7","11,9","0,9","46,6","22,3",31,5827.0,102,EH,4.875206,52.3808103
210,5961,4,Wijk,EJ Frederik Hendrikbuurt,EJ,2019,"13,5","47,1","22,3","10,6","6,3","0,2",68.0,"6,7","7,3",14278.0,6,"61,6","21,4","9,9","1,2","36,8","33,1","30,1",5965.0,104,EJ,4.873115,52.37675945
211,5962,4,Wijk,EK Van Galenbuurt,EK,2019,"2,1","79,1","11,3","4,3","3,3",0,49.0,"6,3","7,2",11201.0,"8,3","68,1",15,"7,7","0,9","49,5","26,8","23,7",5423.0,105,EK,4.8495595,52.3719726
212,5963,4,Wijk,EL Geuzenbuurt,EL,2019,"4,5","56,3","25,7","7,4","5,8","0,1",98.0,"6,7","7,5",13384.0,"5,5",54,"25,9","12,8","1,8","19,7","44,5","35,8",5625.0,106,EL,4.8614025,52.37277565
213,5964,4,Wijk,EM Hoofdweg e.o.,EM,2019,2,"75,7","12,6",6,"3,6","0,1",66.0,"6,4","7,3",14478.0,"7,5","56,6","22,2","12,4","1,3","39,1","36,8","24,1",5572.0,107,EM,4.8533061,52.36724645
214,5965,4,Wijk,EN ChassÃƒÂ©buurt,EN,2019,"1,5","29,6","48,3","10,6","9,9","0,1",73.0,"6,5","7,4",11673.0,"9,5",47,"23,4","17,9","2,2","41,7","30,4","27,9",5271.0,108,EN,4.86079195,52.36759385
215,5966,4,Wijk,EP Bellamybuurt,EP,2019,"10,4","46,7","25,3","9,8","7,6","0,2",85.0,"7,6","7,5",14985.0,"6,3","60,4","21,9","9,8","1,6","36,9","36,9","26,3",6155.0,109,EP,4.8654401,52.36809885
216,5967,4,Wijk,EQ Da Costabuurt,EQ,2019,"8,5","25,1","42,4","13,2","10,6","0,1",88.0,"7,6","7,1",12329.0,"6,1","56,6","25,5","10,2","1,7","22,2","43,9","33,9",6130.0,0,EQ,4.8721073,52.37013015
217,5968,4,Wijk,ER Westindische Buurt,ER,2019,"0,2","57,1",28,7,"7,6","0,1",56.0,"6,4","7,3",11416.0,"7,3","48,3","28,1","14,3","2,1","17,2","49,1","33,8",5942.0,1,ER,4.8540622,52.36100675
218,5969,4,Wijk,ES Van Lennepbuurt,ES,2019,"19,9","40,4","25,7","9,3","4,4","0,2",83.0,"7,3","7,5",17638.0,"6,4","63,9","19,5","9,2","0,9","49,9","25,1",25,5995.0,13,ES,4.8674871,52.3650266
219,5970,4,Wijk,ET Overtoomse Sluis,ET,2019,"7,2","44,1","24,9","11,7","11,6","0,6",44.0,7,"7,4",15456.0,"5,3","57,2","24,6","11,5","1,4","20,3","44,1","35,6",6563.0,18,ET,4.8598311,52.35973835
220,5971,4,Wijk,EU Helmersbuurt,EU,2019,"4,5",35,"28,2","10,4","21,2","0,8",108.0,8,"7,5",12696.0,"5,9","57,3","23,2","12,1","1,5","25,2","36,2","38,6",6638.0,19,EU,4.8715505,52.3635334
221,5972,4,Wijk,EV Vondelparkbuurt,EV,2019,"5,3","18,3","16,5","12,4","45,2","2,3",108.0,"8,3",,4332.0,"6,1","55,7","21,3",15,"1,8","16,3","43,8","39,9",7192.0,20,EV,4.87339625,52.3615828
222,5974,4,Wijk,FD Slotermeer-Noordoost,FD,2019,8,"45,7","28,8","10,8","6,6","0,1",91.0,"5,3","6,7",4358.0,10,"48,9","16,4","23,4","1,3","61,3","12,5","26,2",3528.0,69,FD,4.8290986,52.380685
223,5975,4,Wijk,FF Lutkemeer/Ookmeer,FF,2019,"0,6","5,5","12,7","9,4","68,5","3,2",69.0,,,59.0,"8,7","51,1",20,"19,5","0,7","4,5","32,5",63,3970.0,71,FF,4.7811914,52.3663398
224,5976,4,Wijk,FG De Aker,FG,2019,0,1,23,"27,8","48,2","0,1",69.0,"5,9","7,4",3638.0,"10,4",31,"22,6",35,"0,9","29,6","13,9","56,5",3312.0,72,FG,4.7814874,52.34943735
225,5977,4,Wijk,FH De Punt,FH,2019,"7,5","27,7","26,4","25,2","13,1","0,1",130.0,"6,6","7,2",4598.0,"7,9","49,9","18,4","22,6","1,2","37,4","26,3","36,3",2841.0,73,FH,4.7843972,52.3576807
226,5978,4,Wijk,FJ Osdorp-Midden,FJ,2019,"2,5","12,3","33,6","30,4","20,7","0,4",98.0,6,7,6387.0,"10,9","42,6","18,9","25,9","1,7","57,9","14,1","27,9",2978.0,85,FJ,4.7951324,52.35534825
227,5979,4,Wijk,FK Osdorp-Oost,FK,2019,"3,4","21,6","41,2","18,7","14,7","0,4",89.0,7,"7,1",4997.0,"8,8","51,5","21,2","17,3","1,2","54,6","17,3","28,1",2996.0,86,FK,4.80788145,52.3584471
228,5980,4,Wijk,FL Slotervaart-Noord,FL,2019,"4,7","16,2","34,2","22,9",22,"0,1",76.0,"5,7",7,3044.0,"11,3","41,7","21,5","24,3","1,2","41,1","25,5","33,4",3534.0,87,FL,4.82330125,52.3648658
229,5981,4,Wijk,FM Overtoomse Veld,FM,2019,"11,2","18,9",27,"24,8","17,9","0,2",84.0,"5,2",7,4036.0,"7,1","52,1","20,3","18,8","1,7","37,9","43,1",19,3537.0,88,FM,4.84217435,52.36552265
230,5982,4,Wijk,FN Slotervaart-Zuid,FN,2019,"11,5","16,1","35,5",20,"14,5","2,4",90.0,"5,4","6,7",4063.0,"8,7","55,8","18,4","15,9","1,2","68,3","11,9","19,9",3628.0,22,FN,4.8262398,52.35126435
231,5983,4,Wijk,FP Westlandgracht,FP,2019,"30,5","15,7","19,3","22,4","11,9","0,1",96.0,5,"6,9",4418.0,"4,7","61,8","20,9","11,2","1,4","30,4","51,8","17,8",4184.0,25,FP,4.8415109,52.34778785
232,5984,4,Wijk,FQ Sloten/Nieuw-Sloten,FQ,2019,"1,2","1,6","9,7","44,2",43,"0,3",55.0,"5,8","7,5",1248.0,"9,7","32,9","27,7","28,8",1,"19,5","27,2","53,3",3440.0,26,FQ,4.81912355,52.3393372
233,5985,4,Wijk,KA Hoofddorppleinbuurt,KA,2019,"2,8","59,9","20,4","6,5","10,4",0,62.0,6,"7,3",7679.0,"6,4","52,9","26,3","12,8","1,6","12,9","48,1","38,9",5962.0,43,KA,4.848138,52.3480818
234,5986,4,Wijk,KB Schinkelbuurt,KB,2019,"4,3","53,7","24,6","9,3","7,9","0,2",53.0,"6,5",7,8075.0,"6,6","60,3","22,7","9,3","1,1","33,2","38,4","28,4",6271.0,2,KB,4.852877,52.34964535
235,5987,4,Wijk,KC Willemspark,KC,2019,1,"6,4","25,6","12,3","54,6","0,1",82.0,"7,5","7,8",4149.0,"6,9",42,"24,2","25,4","1,5",10,"41,9","48,1",7157.0,3,KC,4.86279635,52.35437115
236,5988,4,Wijk,KD Museumkwartier,KD,2019,"5,4","11,3",17,"14,9","51,1","0,3",77.0,"8,7","7,9",5196.0,"5,7","50,6","24,2","18,4","1,2","4,2","56,5","39,4",7220.0,4,KD,4.87646435,52.3552648
237,5989,4,Wijk,KE Oude Pijp,KE,2019,"18,2","35,3","25,2","9,8","11,3","0,2",82.0,"7,5","7,3",14851.0,5,"62,1",23,"7,9",2,"26,7","46,1","27,2",6501.0,5,KE,4.89627025,52.35623165
238,5990,4,Wijk,KF Nieuwe Pijp,KF,2019,"11,2","46,9","24,5","9,5","7,5","0,3",70.0,"7,3","7,4",14884.0,"6,1","60,7","22,7","9,2","1,4","30,9","40,3","28,8",6325.0,6,KF,4.8973224,52.3520907
239,5991,4,Wijk,KG Zuid Pijp,KG,2019,"1,7","52,6","34,8",8,"2,8","0,1",69.0,"6,8","7,2",12996.0,"11,1","57,3","19,6",11,1,70,"14,7","15,3",5908.0,66,KG,4.90280345,52.35067815
240,5992,4,Wijk,KH Stadionbuurt,KH,2019,"1,4","41,5","34,4","12,3","10,5",0,108.0,"6,5","7,7",6928.0,"9,9","53,8","21,7","13,4","1,2","48,6","33,2","18,2",6362.0,8,KH,4.8574755,52.34445665
241,5993,4,Wijk,KJ Apollobuurt,KJ,2019,"1,4",2,"5,2","9,6","81,7","0,1",78.0,"7,3","8,2",4400.0,"6,4","39,2","24,2","28,5","1,7","1,6",46,"52,3",6827.0,9,KJ,4.87579195,52.34809945
242,5994,4,Wijk,KK Scheldebuurt,KK,2019,"4,7","10,3","34,7","30,3","19,8","0,2",62.0,"6,4","7,6",7789.0,7,"47,8","25,7",17,"2,4","16,9",54,"29,1",5895.0,10,KK,4.8961454,52.341527
243,5995,4,Wijk,KL IJselbuurt,KL,2019,"1,2","31,6","52,5","8,2","6,4","0,1",86.0,"6,5","7,3",11748.0,"7,5","56,8","22,9","10,7",2,"44,3","38,7","17,1",5737.0,11,KL,4.90391425,52.3480695
244,5996,4,Wijk,KM Rijnbuurt,KM,2019,"1,1","60,9","20,8","10,2",7,0,49.0,"6,3","7,4",5498.0,"7,6","57,7","22,6","10,2","1,8","38,9","39,4","21,7",5977.0,12,KM,4.9038287,52.3400648
245,5997,4,Wijk,KN Prinses Irenebuurt e.o.,KN,2019,0,"7,3","4,2","25,3","61,9","1,3",85.0,"6,4","7,4",1829.0,"4,6","46,6","22,6","24,6","1,5",,24,76,5979.0,14,KN,4.875265,52.34370745
246,5998,4,Wijk,KP Zuidas,KP,2019,"35,5","6,5","14,9",19,"24,1",0,85.0,"5,7","6,5",1128.0,"3,3","68,6","18,9","8,7","0,5",,"85,6","14,3",6026.0,15,KP,4.87475785,52.33829205
247,5999,4,Wijk,KQ Buitenveldert-West,KQ,2019,"6,1","11,2","41,2","16,1",25,"0,5",54.0,"6,1","7,3",2651.0,"5,9","54,2","22,9","15,5","1,5",25,"33,6","41,4",4509.0,16,KQ,4.84837205,52.33015895
248,6000,4,Wijk,KR Buitenveldert-Oost,KR,2019,"12,6","5,9","39,8","18,2","23,2","0,3",113.0,"6,2","7,3",3045.0,"6,3","57,5","22,3","12,9","1,1","27,9",39,"33,1",4531.0,17,KR,4.88851085,52.32913525
249,6001,4,Wijk,MA Oostelijk Havengebied,MA,2019,"1,5","6,8","21,4","35,7","34,2","0,3",76.0,"6,5","7,5",6073.0,"9,7","43,4","25,9",20,1,"32,3","28,7","38,9",4754.0,27,MA,4.9336513,52.3745605
250,6002,4,Wijk,MB Weesperzijde,MB,2019,"9,6","30,2","25,2","14,8","19,8","0,4",163.0,"6,9","7,6",8234.0,"5,4","55,8","24,9","12,8","1,1","26,6","33,9","39,6",6009.0,28,MB,4.9105667,52.35435315
251,6003,4,Wijk,MC Oosterparkbuurt,MC,2019,"10,4","35,8","27,8","15,3","9,5","1,2",81.0,7,"7,4",8543.0,"7,5","58,1","21,2",12,"1,2","56,3","17,3","26,3",5695.0,29,MC,4.9175089,52.35904
252,6004,4,Wijk,MD Transvaalbuurt,MD,2019,"4,9","38,2","34,2","15,3","7,4",0,60.0,"6,8","7,2",12740.0,"9,8","52,3","20,7","15,4","1,9","61,1","16,7","22,2",5352.0,30,MD,4.9213968,52.35394625
253,6005,4,Wijk,ME Dapperbuurt,ME,2019,"14,8","25,7","33,2","14,7","11,3","0,3",103.0,"7,3","7,2",9329.0,"7,7","57,9","20,1",13,"1,4","56,9","17,2","25,9",5536.0,74,ME,4.9298721,52.36095465
254,6006,4,Wijk,MF Indische Buurt-West,MF,2019,"7,8","42,2","27,6","14,8","7,2","0,4",54.0,"7,3","7,3",14272.0,"7,9",53,"22,5",15,"1,6","54,1","18,6","27,3",5231.0,31,MF,4.9360817,52.3621942
255,6007,4,Wijk,MG Indische Buurt-Oost,MG,2019,5,"34,6","30,3","23,3","6,7",0,72.0,"6,7","7,4",5623.0,"9,6","52,5",20,"16,5","1,3","66,5","11,8","21,8",4906.0,32,MG,4.95038715,52.363115
256,6008,4,Wijk,MH Zeeburgereiland/Bovendiep,MH,2019,"39,2","9,1","29,3","11,5","9,6","1,2",62.0,"3,5","6,5",985.0,"4,3","66,5","19,3","8,8","1,1","38,3","46,5","15,2",5233.0,33,MH,4.9826381,52.36209375
257,6009,4,Wijk,MJ IJburg-West,MJ,2019,"4,3","4,1","8,2","29,2","54,3",0,62.0,"5,3","7,8",5347.0,"13,3","32,6","18,3","35,1","0,7","32,2","19,3","48,5",3830.0,34,MJ,4.98973895,52.35968475
258,6011,4,Wijk,ML IJburg-Zuid,ML,2019,"3,6","3,3","10,2",35,"47,9",0,49.0,5,"7,9",4710.0,"13,5","32,4","15,2","38,6","0,3",33,"22,9","44,2",3874.0,36,ML,5.00638825,52.3497225
259,6012,4,Wijk,MM Frankendael,MM,2019,"24,1","29,4","21,5","12,5","12,4","0,1",80.0,"5,8","7,2",3933.0,"6,9","60,6",19,"12,9","0,6","51,1","31,5","17,4",5203.0,37,MM,4.92620945,52.34757445
260,6013,4,Wijk,MN Middenmeer,MN,2019,"20,9","5,3","24,7","21,9","27,1","0,1",64.0,"6,5","7,7",2917.0,"6,2","50,4","21,7","20,2","1,6","24,9","37,5","37,7",5298.0,38,MN,4.94897385,52.3496457
261,6014,4,Wijk,MP Betondorp,MP,2019,"7,7",34,49,"6,5","2,9",0,65.0,"4,7","4,8",1840.0,"10,3","59,4","18,9","10,9","0,5","80,7","2,9","16,5",4913.0,39,MP,4.93993925,52.3421535
262,6015,4,Wijk,MQ Omval/Overamstel,MQ,2019,"61,6","7,4","9,5","10,9","10,5",0,93.0,"4,7",6,1267.0,"1,6","76,3",16,"5,5","0,5","24,3","61,8","13,9",6298.0,40,MQ,4.91891395,52.33237885
263,6016,4,Wijk,NB Noordelijke IJ-oevers-West,NB,2019,"51,5","3,7","8,3","16,1","20,3","0,1",89.0,"6,7","6,5",911.0,"3,2","63,5","21,4","11,5","0,5","19,9","61,2",19,3961.0,50,NB,4.88828365,52.40021275
264,6017,4,Wijk,NC Tuindorp Oostzaan,NC,2019,"6,7","30,4","38,7","10,4","13,7","0,1",80.0,"5,2",7,3332.0,12,"42,3","21,3","23,8","0,6","63,4","5,7","30,8",3720.0,51,NC,4.89119195,52.41028075
265,6018,4,Wijk,ND Kadoelen,ND,2019,"1,2","7,4","28,1","34,5","28,8",0,81.0,"4,9","7,2",985.0,"9,7","29,1","25,9","34,5","0,9","32,5","4,2","63,4",3965.0,52,ND,4.90915285,52.4161941
266,6019,4,Wijk,NE Banne Buiksloot,NE,2019,"1,4","14,9","34,5",34,"14,8","0,4",71.0,"5,4","7,3",3638.0,"12,3","42,8","19,7","24,2","1,1","62,7","6,2","31,1",3246.0,53,NE,4.9165661,52.4079328
267,6020,4,Wijk,NF Nieuwendammerdijk/Buiksloterdijk,NF,2019,"2,1","6,5","19,5","23,3","47,8","0,8",51.0,"5,9","7,1",1791.0,"6,4",25,"26,5","41,5","0,6",,"11,1","88,6",4813.0,54,NF,4.93357905,52.39356785
268,6021,4,Wijk,NG Elzenhagen,NG,2019,"8,2","0,3","12,1","19,7","59,7",0,71.0,5,"6,8",1365.0,7,"33,5","20,9","37,8","0,8",14,"33,6","52,4",3727.0,55,NG,4.9307624,52.40331505
269,6022,4,Wijk,NH Buikslotermeer,NH,2019,"1,3","15,1","43,4","30,9",9,"0,3",75.0,"5,2","7,3",3612.0,"10,1","53,5","20,8","14,2","1,4","56,3","11,9","31,8",3118.0,56,NH,4.9381749,52.40017325
270,6023,4,Wijk,NJ Waterlandpleinbuurt,NJ,2019,"3,5","12,2",48,"23,2","12,7","0,4",96.0,"5,3",7,3979.0,"14,3","42,7","17,8",24,"1,2","52,3","15,8","31,9",3275.0,57,NJ,4.95389985,52.39455385
271,6024,4,Wijk,NK Volewijck,NK,2019,"5,6","46,5","31,2","12,4","4,2","0,2",83.0,6,"6,9",4152.0,"14,1","51,1","17,3","16,8","0,8","80,1","7,4","12,4",3898.0,58,NK,4.9111678,52.39107185
272,6025,4,Wijk,NL IJplein/Vogelbuurt,NL,2019,"6,5",36,"27,1",23,"7,3","0,2",89.0,"5,9","6,8",3509.0,"12,1","53,3",18,"15,6",1,"72,9","6,6","20,5",4299.0,59,NL,4.92086315,52.38946545
273,6026,4,Wijk,NM Tuindorp Buiksloot,NM,2019,"4,3","43,9","45,2","3,7",3,0,51.0,"5,6","6,3",5413.0,"15,1","42,9","22,2","18,9",1,"81,1",,"17,9",3807.0,60,NM,4.92907435,52.3932217
274,6027,4,Wijk,NN Tuindorp Nieuwendam,NN,2019,"5,8","60,5","28,7","3,5","1,5","0,1",51.0,"5,1","6,7",4319.0,"13,4","45,8","23,1","17,4","0,3","79,2","1,6","19,3",4291.0,61,NN,4.94372485,52.39066235
275,6028,4,Wijk,NP Noordelijke IJ-oevers-Oost,NP,2019,"62,8","1,6","11,5","9,9","13,6","0,5",,,,279.0,"1,8","65,1","26,6","4,6","1,8",,"89,5","10,5",5179.0,62,NP,4.9356245,52.38420895
276,6029,4,Wijk,NQ Waterland,NQ,2019,"2,6","10,2","19,7","18,8","47,5","1,1",64.0,"5,1","5,6",36.0,"6,2",31,"28,6","33,3","0,9",4,"16,7","79,2",5256.0,63,NQ,5.0044116,52.39749585
277,6030,4,Wijk,SA Driemond,SA,2019,"0,9","8,3","45,1","27,4",18,"0,3",23.0,"3,7","8,2",391.0,"10,8","28,1","28,5","32,3","0,3","38,8","6,8","54,4",3172.0,64,SA,5.0088323,52.31348545
278,6031,4,Wijk,TA Amstel III/Bullewijk,TA,2019,"89,2","6,8",1,"0,3","2,5","0,3",,,,82.0,1,"90,2","6,2",2,"0,6",,"98,7",,2936.0,103,TA,4.9505866,52.29875535
279,6032,4,Wijk,TB Venserpolder,TB,2019,"11,3","31,1","36,6","13,5","7,6",0,,"5,9","6,9",5936.0,"15,2","59,2","13,9",10,"1,8","61,1",10,"28,8",2909.0,7,TB,4.94524345,52.3215816
280,6033,4,Wijk,TD H-buurt,TD,2019,"11,9","4,7","28,2","46,3","8,7","0,2",,"6,6","7,3",4393.0,"20,7","52,7",13,"11,8","1,7","73,3","14,8","11,9",2447.0,76,TD,4.95644015,52.3082972
281,6034,4,Wijk,TE Ganzenhoef e.o.,TE,2019,"7,4","13,5","6,9","34,5","37,5","0,2",,"6,2","7,2",3957.0,"17,6","47,8",14,19,"1,6","51,2","18,4","30,4",2498.0,77,TE,4.9672283,52.322178
282,6035,4,Wijk,TF Geerdinkhof/Kantershof,TF,2019,"0,2","14,8","22,5","24,3","37,9","0,4",,"5,9","7,2",2307.0,"9,2","53,3","20,1","15,9","1,5","30,1","9,3","60,6",2390.0,78,TF,4.98368765,52.32263805
283,6036,4,Wijk,TJ Holendrecht,TJ,2019,"0,6","14,7","29,2","43,7",11,"0,8",,"5,5","7,3",3225.0,"23,3","46,2","14,8",15,"0,8","75,5","5,3","19,2",2428.0,81,TJ,4.9670607,52.30116005
284,6037,4,Wijk,TK Nellestein,TK,2019,0,"8,8","43,6","34,9","11,7",1,84.0,"4,2","7,4",790.0,"9,3","57,1","21,7","10,8","1,1","19,5","35,3","45,2",2478.0,82,TK,4.99284355,52.3095795
285,6038,4,Wijk,TL Reigersbos,TL,2019,"4,9","15,3","35,6","32,5","11,5","0,3",,"5,8","7,5",3228.0,"15,9","50,8","17,1","14,9","1,3","56,6","8,2","35,2",2669.0,83,TL,4.9726632,52.2929851
286,6039,4,Wijk,TM Gein,TM,2019,"6,2","11,1","44,5","31,5","6,7",0,72.0,"5,6","7,5",2828.0,"16,2","43,8","19,4","19,6","1,1","45,9","13,1","40,9",2710.0,84,TM,4.9939257,52.295524
287,6792,4,Wijk,AA Haarlemmerbuurt,AA,2018,"10,7","29,1","25,5","15,3","18,4",1,72.0,,,10508.0,"6,6","59,2","21,9","11,3",1,43,"29,6","27,5",5833.0,21,AA,4.89021995,52.3837291
288,6793,4,Wijk,AB Jordaan,AB,2018,"19,6","37,7","22,4","9,3","10,1","0,9",70.0,,,15759.0,"5,8",65,"20,1","8,1",1,"37,3","36,8","25,9",6179.0,23,AB,4.8814382,52.3745526
289,6794,4,Wijk,AC Grachtengordel-West,AC,2018,"9,6","19,9","17,3","13,1",37,"3,1",66.0,,,9549.0,"3,5","58,9","25,9","9,6","2,1","10,6","49,6","39,8",6994.0,24,AC,4.888214,52.37334925
290,6795,4,Wijk,AD Burgwallen-Nieuwe Zijde,AD,2018,"19,2",29,"20,6","12,9","14,2","4,1",136.0,,,5121.0,"2,7","65,6","24,6","4,8","2,5","10,4","69,3","20,2",5730.0,41,AD,4.8971187,52.3749354
291,6796,4,Wijk,AE Burgwallen-Oude Zijde,AE,2018,"15,5","31,2","20,6","12,5","16,7","3,4",104.0,,,8265.0,"3,8","64,4","24,6","4,9","2,4","19,3","62,4","18,3",5466.0,42,AE,4.8976341,52.37229515
292,6797,4,Wijk,AF Nieuwmarkt/Lastage,AF,2018,"9,4",29,"23,3","17,4","16,2","4,6",107.0,,,8777.0,"5,8","62,7","21,5","8,2","1,8","40,8","30,7","28,4",5469.0,44,AF,4.904438,52.37291
293,6798,4,Wijk,AG Grachtengordel-Zuid,AG,2018,"10,1","19,7","19,4","15,1","33,7",2,164.0,,,6533.0,"3,7",59,"24,9","10,5","1,9","5,7","57,6","36,7",6565.0,45,AG,4.8927838,52.3650518
294,6799,4,Wijk,AH De Weteringschans,AH,2018,16,"28,4","19,6","11,4","23,3","1,3",147.0,,,8295.0,"4,2","59,6","24,5","9,9","1,8","11,8","50,9","37,4",6106.0,46,AH,4.89192575,52.36205585
295,6800,4,Wijk,AJ Weesperbuurt/Plantage,AJ,2018,"12,9","27,6","27,3",10,"21,3",1,91.0,,,5416.0,"4,2","63,1","22,1",9,"1,6","30,8","34,9","34,4",5790.0,47,AJ,4.91176485,52.3644559
296,6801,4,Wijk,AK Oostelijke Eilanden/Kadijken,AK,2018,"13,3","21,8",29,"22,5","12,9","0,5",75.0,,,7341.0,"7,7","58,5","20,6","12,3",1,"58,2","12,9","28,9",5026.0,48,AK,4.9218291,52.37072065
297,6802,4,Wijk,EA Sloterdijk-West,EA,2018,"1,7","16,2","46,6","19,7","15,4","0,4",81.0,,,196.0,"2,4","44,2",39,12,"2,4","4,7","86,8","8,5",5807.0,95,EA,4.85453985,52.39031575
298,6803,4,Wijk,EB Spaarndammerbuurt/Zeeheldenbuurt,EB,2018,11,"44,9","22,2",15,"6,5","0,4",63.0,,,4549.0,"9,5","58,2",19,"12,5","0,9","62,1","15,5","22,5",5180.0,96,EB,4.8744225,52.39042765
299,6804,4,Wijk,EC Houthavens,EC,2018,"9,8","19,4",12,"24,2","34,6","0,2",63.0,,,1788.0,"3,9","53,5","26,5","15,5","0,6","15,5","37,6","46,9",5403.0,97,EC,4.8803174,52.3937846
300,6805,4,Wijk,ED De Kolenkit,ED,2018,"19,4","29,3",15,"23,8","12,5",0,82.0,,,6698.0,"8,1",54,"17,4","19,1","1,4","68,5","13,1","18,5",4070.0,98,ED,4.8413775,52.37864745
301,6806,4,Wijk,EE Landlust,EE,2018,"3,6",63,"23,4","5,9","4,1","0,1",81.0,,,9468.0,"8,3",53,"21,4","15,7","1,6",46,27,27,4672.0,99,EE,4.85425375,52.3798758
302,6807,4,Wijk,EF Erasmuspark,EF,2018,"2,8","67,2","17,7","8,3","3,9",0,66.0,,,8453.0,"6,9","52,5","25,8","12,9","1,9","15,1","40,4","44,5",4687.0,100,EF,4.85118035,52.3762431
303,6808,4,Wijk,EG Centrale Markt,EG,2018,"3,6","15,9","29,5","35,6","14,5","0,9",72.0,,,2312.0,"11,2","48,9","19,1","19,7","1,1","48,2",13,"38,7",4796.0,101,EG,4.86567395,52.37904255
304,6809,4,Wijk,EH Staatsliedenbuurt,EH,2018,"19,7","39,6","20,1","14,1","5,9","0,6",63.0,,,16529.0,"7,4","59,9","20,4","11,5","0,8","47,4","21,9","30,7",5388.0,102,EH,4.875206,52.3808103
305,6810,4,Wijk,EJ Frederik Hendrikbuurt,EJ,2018,"13,6","47,3","22,3","10,5","6,1","0,2",72.0,,,14239.0,"5,6","60,9","22,1","10,4",1,"37,9","31,9","30,3",5536.0,104,EJ,4.873115,52.37675945
306,6811,4,Wijk,EK Van Galenbuurt,EK,2018,"2,1",80,12,"3,4","2,6",0,65.0,,,11207.0,"7,8","67,9","15,3",8,"0,9","49,8",27,"23,2",5006.0,105,EK,4.8495595,52.3719726
307,6812,4,Wijk,EL Geuzenbuurt,EL,2018,"4,5","56,4","26,6","6,9","5,4","0,1",75.0,,,13351.0,"5,7","52,9","25,7","13,2","2,5","19,8","44,2",36,5242.0,106,EL,4.8614025,52.37277565
308,6813,4,Wijk,EM Hoofdweg e.o.,EM,2018,"2,1","76,2","12,3",6,"3,4","0,1",67.0,,,14473.0,"7,8","56,7","21,4","12,6","1,5","39,4","36,9","23,6",5094.0,107,EM,4.8533061,52.36724645
309,6814,4,Wijk,EN ChassÃƒÂ©buurt,EN,2018,"1,6","30,4","48,2","10,4","9,4","0,1",65.0,,,11646.0,"9,2","46,4","23,6","18,5","2,4","42,3","30,5","27,2",4926.0,108,EN,4.86079195,52.36759385
310,6815,4,Wijk,EP Bellamybuurt,EP,2018,"10,5","48,2","24,6","9,6","6,9","0,2",76.0,,,14810.0,"6,3","61,6","21,4","9,1","1,6","37,6","38,5",24,5664.0,109,EP,4.8654401,52.36809885
311,6816,4,Wijk,EQ Da Costabuurt,EQ,2018,"8,9","24,9","41,5","14,1","10,4","0,2",98.0,,,12287.0,"6,1","57,3","24,8","10,3","1,5","22,5","44,6","32,9",5658.0,0,EQ,4.8721073,52.37013015
312,6817,4,Wijk,ER Westindische Buurt,ER,2018,"0,2","60,3","25,4","6,8","7,2","0,1",54.0,,,11403.0,"7,1",51,26,"13,5","2,4","17,5","50,8","31,8",5508.0,1,ER,4.8540622,52.36100675
313,6818,4,Wijk,ES Van Lennepbuurt,ES,2018,"20,1","40,4","25,9","9,1","4,2","0,2",95.0,,,17618.0,"6,6","65,2","18,2",9,1,"50,9","24,6","24,4",5569.0,13,ES,4.8674871,52.3650266
314,6819,4,Wijk,ET Overtoomse Sluis,ET,2018,7,"44,6","24,9","11,7","11,1","0,6",68.0,,,15329.0,"5,5","56,7","24,5","11,8","1,4",21,"43,2","35,8",6078.0,18,ET,4.8598311,52.35973835
315,6820,4,Wijk,EU Helmersbuurt,EU,2018,"4,5","36,2","27,5","10,3","20,8","0,8",81.0,,,12639.0,"5,9","58,6","22,1",12,"1,4","25,4","39,2","35,4",6108.0,19,EU,4.8715505,52.3635334
316,6821,4,Wijk,EV Vondelparkbuurt,EV,2018,"4,6","19,2","16,2","11,8","45,8","2,4",81.0,,,4276.0,6,"56,7","22,3","14,4","0,6","16,5","42,2","41,3",6765.0,20,EV,4.87339625,52.3615828
317,6822,4,Wijk,FA Sloterdijk Nieuw-West,FA,2018,0,0,"11,9","16,7","54,8","16,7",,,,6.0,"0,9","90,3","6,4","1,3","1,1",,100,,5507.0,65,FA,4.80115165,52.39220185
318,6823,4,Wijk,FD Slotermeer-Noordoost,FD,2018,"9,1","46,3","28,6","10,9",5,"0,1",94.0,,,4360.0,"10,4","48,3",16,"23,6","1,6","58,7","13,7","27,6",3134.0,69,FD,4.8290986,52.380685
319,6824,4,Wijk,FF Lutkemeer/Ookmeer,FF,2018,"0,6","6,7","12,7","8,6","67,5","3,8",66.0,,,61.0,"10,5","32,6","28,2","27,7",1,"4,5","37,9","57,6",3578.0,71,FF,4.7811914,52.3663398
320,6825,4,Wijk,FG De Aker,FG,2018,0,1,23,"27,7","48,2","0,1",66.0,,,3637.0,"10,2","31,2","22,4","35,2",1,"29,6","14,4",56,2994.0,72,FG,4.7814874,52.34943735
321,6826,4,Wijk,FH De Punt,FH,2018,"6,2",28,"26,8","25,5","13,3","0,1",118.0,,,4528.0,"8,1","50,5","17,8","22,1","1,4","40,1",16,"43,9",2459.0,73,FH,4.7843972,52.3576807
322,6827,4,Wijk,FJ Osdorp-Midden,FJ,2018,"2,9","12,7","32,9","30,3","20,9","0,4",85.0,,,6387.0,"10,6",44,"18,2","25,8","1,4","59,9","12,7","27,4",2621.0,85,FJ,4.7951324,52.35534825
323,6828,4,Wijk,FK Osdorp-Oost,FK,2018,"3,4","21,4","42,5","17,9","14,5","0,4",106.0,,,5036.0,9,"51,3","21,1","17,3","1,3","54,2","16,8","28,9",2660.0,86,FK,4.80788145,52.3584471
324,6829,4,Wijk,FL Slotervaart-Noord,FL,2018,"4,7","16,5","34,8","21,8","22,1","0,1",63.0,,,2978.0,"11,4","41,6","21,8","24,1","1,2","38,1","28,3","33,6",3099.0,87,FL,4.82330125,52.3648658
325,6830,4,Wijk,FM Overtoomse Veld,FM,2018,12,"15,7",27,"26,7","18,3","0,3",92.0,,,3767.0,7,"53,9","19,3","18,3","1,5","41,3","41,8","16,9",3081.0,88,FM,4.84217435,52.36552265
326,6831,4,Wijk,FN Slotervaart-Zuid,FN,2018,"11,9","16,5","35,5","19,3","14,4","2,4",112.0,,,3961.0,"8,6","55,5","18,6",16,"1,3","69,9","11,5","18,6",3139.0,22,FN,4.8262398,52.35126435
327,6832,4,Wijk,FP Westlandgracht,FP,2018,"31,9","13,9","17,8","23,8","12,5","0,1",114.0,,,4016.0,"4,7","62,7","19,7","11,5","1,4","33,5","49,1","17,5",3603.0,25,FP,4.8415109,52.34778785
328,6833,4,Wijk,FQ Sloten/Nieuw-Sloten,FQ,2018,"1,1","1,5","9,5","44,7","42,8","0,3",59.0,,,1245.0,"10,1","33,4","26,7","28,8",1,"19,6","27,6","52,8",3159.0,26,FQ,4.81912355,52.3393372
329,6834,4,Wijk,KA Hoofddorppleinbuurt,KA,2018,"2,9","64,9","18,2","5,7","8,4",0,64.0,,,7660.0,"6,7","54,4","24,7","12,7","1,5","13,1","48,8","38,2",5419.0,43,KA,4.848138,52.3480818
330,6835,4,Wijk,KB Schinkelbuurt,KB,2018,"4,5","55,6","22,8","9,1","7,8","0,2",66.0,,,7769.0,"6,8","60,3","22,4","9,1","1,4","34,7","36,2",29,5627.0,2,KB,4.852877,52.34964535
331,6836,4,Wijk,KC Willemspark,KC,2018,"0,9","7,2","25,5","12,4","53,9","0,1",75.0,,,4126.0,7,"41,7","23,8",26,"1,4","10,2","41,8",48,6669.0,3,KC,4.86279635,52.35437115
332,6837,4,Wijk,KD Museumkwartier,KD,2018,"5,4",12,"17,3","15,4","49,5","0,3",77.0,,,5187.0,"5,3","50,2","24,7","18,6","1,1","4,5",57,"38,5",6774.0,4,KD,4.87646435,52.3552648
333,6838,4,Wijk,KE Oude Pijp,KE,2018,"18,5","36,5","24,6","9,4","10,8","0,2",80.0,,,14861.0,"5,1",63,"21,9","8,1","1,9","26,8","46,8","26,5",6054.0,5,KE,4.89627025,52.35623165
334,6839,4,Wijk,KF Nieuwe Pijp,KF,2018,"10,7","48,4","24,4","9,2","6,9","0,3",74.0,,,14661.0,"5,9","61,4","22,1","9,1","1,5","31,3","40,6","28,1",5830.0,6,KF,4.8973224,52.3520907
335,6840,4,Wijk,KG Zuid Pijp,KG,2018,"1,8",54,"33,8","7,6","2,8","0,1",54.0,,,12953.0,11,"57,8",19,11,"1,2","70,4","14,3","15,3",5665.0,66,KG,4.90280345,52.35067815
336,6841,4,Wijk,KH Stadionbuurt,KH,2018,"1,4","42,5","34,3","12,4","9,5",0,85.0,,,6913.0,"9,6","55,1","21,2","12,8","1,3","48,9","33,8","17,3",5967.0,8,KH,4.8574755,52.34445665
337,6842,4,Wijk,KJ Apollobuurt,KJ,2018,"1,4","1,9","5,6","10,5","80,5","0,1",75.0,,,4397.0,"6,4","40,2","23,9","27,8","1,8","1,6","45,2","53,2",6493.0,9,KJ,4.87579195,52.34809945
338,6843,4,Wijk,KK Scheldebuurt,KK,2018,"4,8","10,9","36,8","32,3","15,1","0,2",60.0,,,7700.0,"6,6","48,8","25,3","16,5","2,8","17,2","54,7","28,1",5649.0,10,KK,4.8961454,52.341527
339,6844,4,Wijk,KL IJselbuurt,KL,2018,"1,2","32,9","52,2","7,4","6,2","0,1",70.0,,,11724.0,"7,9","56,2",23,"10,6","2,3","44,4","39,1","16,5",5485.0,11,KL,4.90391425,52.3480695
340,6845,4,Wijk,KM Rijnbuurt,KM,2018,"1,2","64,2",21,"8,1","5,6",0,35.0,,,5491.0,"7,7","57,1","23,4","9,9","1,9","39,1","40,3","20,6",5633.0,12,KM,4.9038287,52.3400648
341,6846,4,Wijk,KN Prinses Irenebuurt e.o.,KN,2018,0,"7,5","4,2","25,7","61,4","1,3",56.0,,,1829.0,"4,6","47,8","23,1","23,3","1,2",,"23,6","76,4",5686.0,14,KN,4.875265,52.34370745
342,6847,4,Wijk,KP Zuidas,KP,2018,"48,7","3,4","10,5","13,3","24,1",0,56.0,,,822.0,"2,8","71,5","17,3","7,7","0,7",,"90,7","9,1",5013.0,15,KP,4.87475785,52.33829205
343,6848,4,Wijk,KQ Buitenveldert-West,KQ,2018,"6,1","11,6","41,3","16,8","23,7","0,5",40.0,,,2649.0,"5,7","54,7",23,15,"1,4","26,4","33,3","40,3",4092.0,16,KQ,4.84837205,52.33015895
344,6849,4,Wijk,KR Buitenveldert-Oost,KR,2018,"12,7","5,5","40,2","18,8","22,5","0,4",65.0,,,3012.0,6,"58,2","22,5","12,3",1,"28,3","37,5","34,2",3939.0,17,KR,4.88851085,52.32913525
345,6850,4,Wijk,MA Oostelijk Havengebied,MA,2018,"0,6","6,4","21,3","36,7","34,7","0,3",69.0,,,5887.0,"9,9","43,2",25,21,"0,9","34,1",26,"39,9",4310.0,27,MA,4.9336513,52.3745605
346,6851,4,Wijk,MB Weesperzijde,MB,2018,"10,2","31,3","24,2","13,4","20,4","0,5",159.0,,,7658.0,"5,2","55,7","24,6","12,9","1,6","28,6","32,2","39,2",5451.0,28,MB,4.9105667,52.35435315
347,6852,4,Wijk,MC Oosterparkbuurt,MC,2018,"10,2","35,8","27,9","15,4","9,5","1,2",86.0,,,8503.0,"7,8","58,3","20,5","12,1","1,4","56,9","17,2","25,8",5153.0,29,MC,4.9175089,52.35904
348,6853,4,Wijk,MD Transvaalbuurt,MD,2018,"4,9","38,3",34,"15,6","7,2",0,67.0,,,12713.0,10,"53,5","19,3",15,"2,2","61,5","16,5","21,9",4975.0,30,MD,4.9213968,52.35394625
349,6854,4,Wijk,ME Dapperbuurt,ME,2018,"14,8","26,1","33,6","14,2",11,"0,3",106.0,,,9199.0,"7,6","59,1",20,"12,3","1,1","58,6","17,5","23,9",5038.0,74,ME,4.9298721,52.36095465
350,6855,4,Wijk,MF Indische Buurt-West,MF,2018,"7,8","43,3",27,"14,2","7,3","0,4",56.0,,,13968.0,8,"53,6","22,1","14,6","1,7","54,9","17,4","27,6",4764.0,31,MF,4.9360817,52.3621942
351,6856,4,Wijk,MG Indische Buurt-Oost,MG,2018,5,"34,7","30,3","23,3","6,7",0,67.0,,,5623.0,9,"53,2",20,"16,7","1,1","66,7","11,9","21,3",4573.0,32,MG,4.95038715,52.363115
352,6857,4,Wijk,MH Zeeburgereiland/Bovendiep,MH,2018,"43,5","9,1","26,5",11,"8,5","1,4",60.0,,,880.0,"3,9","70,1","17,5","7,4","1,1","41,7","49,4","8,9",3335.0,33,MH,4.9826381,52.36209375
353,6858,4,Wijk,MJ IJburg-West,MJ,2018,"1,9","1,4","8,3","31,3","57,1",0,60.0,,,5032.0,"14,1","30,5","17,9","36,8","0,7","32,8","17,5","49,8",3462.0,34,MJ,4.98973895,52.35968475
354,6860,4,Wijk,ML IJburg-Zuid,ML,2018,"3,7","3,4","10,6",36,"46,3",0,69.0,,,4493.0,"13,6","32,6","14,6","38,8","0,4","40,4","16,7","42,9",3627.0,36,ML,5.00638825,52.3497225
355,6861,4,Wijk,MM Frankendael,MM,2018,"23,6","27,3","22,7","13,2",13,"0,2",91.0,,,3730.0,"6,9","59,9","19,2","13,2","0,8","55,5","27,3","17,3",4773.0,37,MM,4.92620945,52.34757445
356,6862,4,Wijk,MN Middenmeer,MN,2018,"16,1","5,2","26,3","23,6","28,7","0,1",76.0,,,2717.0,"6,7",47,"23,6","20,9","1,8","21,4","40,4","38,2",4776.0,38,MN,4.94897385,52.3496457
357,6863,4,Wijk,MP Betondorp,MP,2018,"7,7","34,3","50,3","5,5","2,3",0,61.0,,,1840.0,10,"60,1",19,"10,4","0,5","81,5","3,3","15,3",4267.0,39,MP,4.93993925,52.3421535
358,6864,4,Wijk,MQ Omval/Overamstel,MQ,2018,"68,5","3,6","7,2","10,9","9,9",0,113.0,,,1143.0,"2,2","77,1","14,7","5,5","0,5","26,9","61,8","11,3",4488.0,40,MQ,4.91891395,52.33237885
359,6865,4,Wijk,NB Noordelijke IJ-oevers-West,NB,2018,"42,7","2,5","9,6","20,4","24,6","0,1",122.0,,,722.0,"3,4","65,5","19,3","11,5","0,4","25,2","60,7","14,1",4118.0,50,NB,4.88828365,52.40021275
360,6866,4,Wijk,NC Tuindorp Oostzaan,NC,2018,"6,7","30,7","40,2","8,8","13,6","0,1",62.0,,,3310.0,"11,6","42,3","21,8","23,7","0,7","62,1","7,9",30,3286.0,51,NC,4.89119195,52.41028075
361,6867,4,Wijk,ND Kadoelen,ND,2018,"1,2","7,9",30,"36,8",24,0,83.0,,,928.0,"9,4","29,1","27,8","33,2","0,6","25,9","13,7","60,4",3439.0,52,ND,4.90915285,52.4161941
362,6868,4,Wijk,NE Banne Buiksloot,NE,2018,"1,3","15,3","34,4","34,2","14,4","0,4",56.0,,,3621.0,"12,5","42,7",20,"23,6","1,1","64,3","6,5","29,2",2793.0,53,NE,4.9165661,52.4079328
363,6869,4,Wijk,NF Nieuwendammerdijk/Buiksloterdijk,NF,2018,"2,1","6,7","20,8","24,1","45,4",1,102.0,,,1792.0,"6,1","25,9","25,3","41,9","0,9",,"11,7","87,9",4509.0,54,NF,4.93357905,52.39356785
364,6870,4,Wijk,NG Elzenhagen,NG,2018,0,"0,3","13,2","21,5",65,0,69.0,,,1259.0,"7,1","29,1",22,"41,1","0,6","15,1",30,"54,9",3334.0,55,NG,4.9307624,52.40331505
365,6871,4,Wijk,NH Buikslotermeer,NH,2018,"1,3","15,2","43,2",31,9,"0,3",70.0,,,3614.0,"10,7","53,8","20,1","14,3","1,1",57,"13,1","29,9",2674.0,56,NH,4.9381749,52.40017325
366,6872,4,Wijk,NJ Waterlandpleinbuurt,NJ,2018,"3,6","15,4","45,6","23,5","11,4","0,4",101.0,,,4068.0,"14,8","41,7","17,7","24,6","1,1","51,9","16,8","31,2",2864.0,57,NJ,4.95389985,52.39455385
367,6873,4,Wijk,NK Volewijck,NK,2018,"5,7","46,6","31,2","12,3","4,1","0,2",92.0,,,4147.0,"13,5","51,1","17,8","16,6",1,"79,9","8,3","11,8",3375.0,58,NK,4.9111678,52.39107185
368,6874,4,Wijk,NL IJplein/Vogelbuurt,NL,2018,"6,5","36,1","27,1",23,"7,1","0,2",72.0,,,3501.0,"12,5","53,3","17,6","15,5",1,"72,7","7,3",20,3487.0,59,NL,4.92086315,52.38946545
369,6875,4,Wijk,NM Tuindorp Buiksloot,NM,2018,"4,3","44,3","45,2","3,4","2,9",0,102.0,,,5413.0,"15,1","42,2","22,4","19,3","0,9",82,,"17,2",3537.0,60,NM,4.92907435,52.3932217
370,6876,4,Wijk,NN Tuindorp Nieuwendam,NN,2018,"5,8","60,5","28,8","3,4","1,4","0,1",102.0,,,4319.0,"12,9","46,5",23,"17,4","0,4","80,3","2,1","17,6",3846.0,61,NN,4.94372485,52.39066235
371,6877,4,Wijk,NP Noordelijke IJ-oevers-Oost,NP,2018,"62,2","1,6","12,4","9,8","13,5","0,5",,,,282.0,1,"60,1","32,7","5,3",1,,"88,6","11,4",5043.0,62,NP,4.9356245,52.38420895
372,6878,4,Wijk,NQ Waterland,NQ,2018,"2,8","10,1","20,2","19,5","46,3","1,2",90.0,,,36.0,"6,3","30,5","29,8","32,9","0,5",4,"19,6","76,4",4601.0,63,NQ,5.0044116,52.39749585
373,6879,4,Wijk,SA Driemond,SA,2018,"0,9","8,3","46,5","27,5","16,5","0,3",29.0,,,385.0,11,28,"27,7","32,9","0,3","40,2","5,9",54,2816.0,64,SA,5.0088323,52.31348545
374,6880,4,Wijk,TA Amstel III/Bullewijk,TA,2018,"93,1","3,3","0,3","0,3","2,8","0,3",,,,75.0,"1,5","91,2","4,8","1,5","1,1",,"98,3",,2858.0,103,TA,4.9505866,52.29875535
375,6881,4,Wijk,TB Venserpolder,TB,2018,"11,3","31,6","36,8","12,7","7,5",0,,,,5933.0,"15,2","59,2","13,9","10,2","1,5","64,6",9,"26,4",2422.0,7,TB,4.94524345,52.3215816
376,6882,4,Wijk,TD H-buurt,TD,2018,"11,8","4,8","28,2","46,3","8,6","0,2",,,,4397.0,"20,9","53,8",12,"11,7","1,6","73,5",15,"11,5",2218.0,76,TD,4.95644015,52.3082972
377,6883,4,Wijk,TE Ganzenhoef e.o.,TE,2018,"7,4","13,5","6,9","34,7","37,2","0,2",,,,3928.0,"17,6","47,2","14,1","19,2",2,51,"18,9","30,2",2141.0,77,TE,4.9672283,52.322178
378,6884,4,Wijk,TF Geerdinkhof/Kantershof,TF,2018,"0,2","14,8","22,6","24,3","37,9","0,4",,,,2302.0,"9,5","53,9","19,5","15,5","1,6","30,1","10,7","59,2",2086.0,78,TF,4.98368765,52.32263805
379,6885,4,Wijk,TJ Holendrecht,TJ,2018,"0,5","14,8","29,3","43,7",11,"0,8",,,,3225.0,"23,4","45,5","15,2","15,2","0,8","76,3","5,1","18,5",2150.0,81,TJ,4.9670607,52.30116005
380,6886,4,Wijk,TK Nellestein,TK,2018,0,"8,8","43,6","34,9","11,7",1,79.0,,,790.0,"9,8","56,8","21,9","10,5",1,"19,9","38,1",42,2059.0,82,TK,4.99284355,52.3095795
381,6887,4,Wijk,TL Reigersbos,TL,2018,"4,9","16,5","35,6","31,7","10,9","0,3",,,,3228.0,"15,2","51,2","17,3","15,1","1,2","57,3","8,8","33,9",2320.0,83,TL,4.9726632,52.2929851
382,6888,4,Wijk,TM Gein,TM,2018,"3,9","11,3","44,5","31,8","6,3","2,2",66.0,,,2822.0,"16,6","42,9","19,1","20,3","1,1","46,4","14,2","39,4",2411.0,84,TM,4.9939257,52.295524
383,7641,4,Wijk,AA Haarlemmerbuurt,AA,2017,"10,6","29,1","25,7","15,4","18,3",1,73.0,,"7,5",10408.0,"6,8","59,1","21,5","11,7","0,9","43,2",28,"28,9",5235.0,21,AA,4.89021995,52.3837291
384,7642,4,Wijk,AB Jordaan,AB,2017,"19,8","37,7","22,3","9,3",10,1,91.0,,"7,4",15755.0,"5,7",66,"18,8","8,3","1,2","37,3","33,7",29,5433.0,23,AB,4.8814382,52.3745526
385,7643,4,Wijk,AC Grachtengordel-West,AC,2017,"9,7","19,8","17,3","13,1","36,7","3,4",71.0,,"7,1",9447.0,"3,2",61,"24,6","9,8","1,4","9,9",44,46,6248.0,24,AC,4.888214,52.37334925
386,7644,4,Wijk,AD Burgwallen-Nieuwe Zijde,AD,2017,"19,3","28,7","20,7","12,8","14,3","4,3",141.0,,"5,5",4985.0,"2,6","65,4","24,5","4,6","2,8","9,2","67,9","22,9",5167.0,41,AD,4.8971187,52.3749354
387,7645,4,Wijk,AE Burgwallen-Oude Zijde,AE,2017,"15,6","31,1","20,6","12,5","16,7","3,5",131.0,,"6,2",8220.0,4,65,"23,1","5,1","2,8","18,2","60,6","21,2",4692.0,42,AE,4.8976341,52.37229515
388,7646,4,Wijk,AF Nieuwmarkt/Lastage,AF,2017,"9,5","28,9","23,3","17,5","16,1","4,7",100.0,,"7,3",8601.0,"5,7","63,1","21,7",8,"1,5","40,4","29,3","30,3",4918.0,44,AF,4.904438,52.37291
389,7647,4,Wijk,AG Grachtengordel-Zuid,AG,2017,"9,8","19,8","19,4","15,1","33,7","2,2",167.0,,"6,9",6434.0,"3,8","60,3",24,"10,1","1,8","5,5",53,"41,5",5931.0,45,AG,4.8927838,52.3650518
390,7648,4,Wijk,AH De Weteringschans,AH,2017,"16,1","28,5","19,6","11,3","23,2","1,3",143.0,,"7,5",8230.0,"4,3","59,2","23,9","10,4","2,1","11,4","47,1","41,5",5584.0,46,AH,4.89192575,52.36205585
391,7649,4,Wijk,AJ Weesperbuurt/Plantage,AJ,2017,13,"27,7","27,2","9,8","21,2","1,1",77.0,,"7,2",5372.0,"4,2","63,6",22,"8,7","1,4","30,9","32,4","36,7",5186.0,47,AJ,4.91176485,52.3644559
392,7650,4,Wijk,AK Oostelijke Eilanden/Kadijken,AK,2017,"13,5","21,8","29,2","22,6","12,4","0,5",81.0,,"7,2",7263.0,"7,8","58,2","20,4","12,7",1,"58,7","11,9","29,4",4261.0,48,AK,4.9218291,52.37072065
393,7651,4,Wijk,EA Sloterdijk-West,EA,2017,"1,7","16,3","46,8","19,7",15,"0,4",,,,195.0,"2,7","42,4","40,9","11,7","2,3","4,7","87,6","7,7",4733.0,95,EA,4.85453985,52.39031575
394,7652,4,Wijk,EB Spaarndammerbuurt/Zeeheldenbuurt,EB,2017,11,45,"22,1",15,"6,4","0,4",76.0,,"7,2",4539.0,"9,5","58,6","18,5","12,4",1,"65,7","11,9","22,5",4173.0,96,EB,4.8744225,52.39042765
395,7653,4,Wijk,EC Houthavens,EC,2017,"52,5","12,2","10,5","11,1","13,6","0,1",76.0,,,3327.0,"3,8","56,3",24,15,"0,8",8,"67,1","24,9",4343.0,97,EC,4.8803174,52.3937846
396,7654,4,Wijk,ED De Kolenkit,ED,2017,"19,4","30,5","14,7","23,6","11,8",0,74.0,,"7,2",6734.0,8,"52,2","18,1",20,"1,7","68,5","12,4","19,1",3349.0,98,ED,4.8413775,52.37864745
397,7655,4,Wijk,EE Landlust,EE,2017,"4,2","62,9","23,1","5,7",4,"0,1",113.0,,"7,3",9303.0,"8,1","53,3","21,2","15,7","1,7","47,7","25,5","26,8",3901.0,99,EE,4.85425375,52.3798758
398,7656,4,Wijk,EF Erasmuspark,EF,2017,"2,8","67,3","17,7","8,4","3,8",0,86.0,,"7,2",8451.0,"7,1","53,1","24,6","12,7","2,4",17,"36,3","46,7",3911.0,100,EF,4.85118035,52.3762431
399,7657,4,Wijk,EG Centrale Markt,EG,2017,"3,4","15,7","29,5","35,7","14,5","1,1",94.0,,"7,4",2310.0,"11,1","48,6","18,6","20,7",1,"48,6","12,6","38,8",3989.0,101,EG,4.86567395,52.37904255
400,7658,4,Wijk,EH Staatsliedenbuurt,EH,2017,"19,8","39,6",20,14,"5,9","0,7",65.0,,"7,3",16636.0,"7,2","60,2",20,"11,6",1,"48,4",19,"32,6",4634.0,102,EH,4.875206,52.3808103
401,7659,4,Wijk,EJ Frederik Hendrikbuurt,EJ,2017,"13,6","47,5","22,4","10,5","5,9","0,2",94.0,,"7,5",14167.0,"5,8","61,5","21,4","10,2","1,1","38,4","30,4","31,3",4690.0,104,EJ,4.873115,52.37675945
402,7660,4,Wijk,EK Van Galenbuurt,EK,2017,"2,1","80,2","11,9","3,2","2,5",0,81.0,,"7,3",11180.0,"8,2","67,4","15,1","8,4","0,9","50,2","25,6","24,2",4149.0,105,EK,4.8495595,52.3719726
403,7661,4,Wijk,EL Geuzenbuurt,EL,2017,"4,4","56,6","26,8","6,8","5,2","0,1",108.0,,"7,5",13314.0,"5,9","53,3",25,"13,3","2,7","20,2","41,1","38,7",4297.0,106,EL,4.8614025,52.37277565
404,7662,4,Wijk,EM Hoofdweg e.o.,EM,2017,"2,1","76,4","12,2","5,9","3,3","0,1",70.0,,"7,4",14424.0,"8,2","56,6","21,2","12,5","1,5","39,9","35,9","24,1",4167.0,107,EM,4.8533061,52.36724645
405,7663,4,Wijk,EN ChassÃƒÂ©buurt,EN,2017,"1,6","30,7","48,3","10,2","9,2","0,1",89.0,,"7,8",11592.0,"9,3","47,6","22,7","18,3","2,1","43,8","28,3","27,8",4128.0,108,EN,4.86079195,52.36759385
406,7664,4,Wijk,EP Bellamybuurt,EP,2017,11,49,"23,8","9,2","6,9","0,2",86.0,,"7,6",14448.0,"6,5","62,5","19,9","9,3","1,8","37,6","35,9","26,5",4880.0,109,EP,4.8654401,52.36809885
407,7665,4,Wijk,EQ Da Costabuurt,EQ,2017,"8,9","25,2","41,4",14,"10,2","0,2",85.0,,"7,1",12296.0,"6,3",57,"24,3","10,5","1,8","22,8","41,6","35,6",4874.0,0,EQ,4.8721073,52.37013015
408,7666,4,Wijk,ER Westindische Buurt,ER,2017,"0,2","60,4","25,7","6,7","6,9","0,1",62.0,,"7,3",11484.0,"6,9","51,6","26,1","12,8","2,7","17,6","49,3","33,1",4590.0,1,ER,4.8540622,52.36100675
409,7667,4,Wijk,ES Van Lennepbuurt,ES,2017,"20,3","40,4",26,"9,1",4,"0,2",83.0,,"7,4",17500.0,"6,3","65,5","17,8","9,2","1,2","53,1","21,1","25,8",4763.0,13,ES,4.8674871,52.3650266
410,7668,4,Wijk,ET Overtoomse Sluis,ET,2017,"5,7","45,8","25,3","11,8","10,7","0,7",59.0,,"7,5",15219.0,"5,6","55,9","24,6","12,5","1,4","19,8","40,3","39,9",5167.0,18,ET,4.8598311,52.35973835
411,7669,4,Wijk,EU Helmersbuurt,EU,2017,"4,7","36,4","27,6","10,2","20,4","0,8",80.0,,"7,3",12694.0,6,"57,6","21,8","12,9","1,7","26,2","35,7","38,1",5278.0,19,EU,4.8715505,52.3635334
412,7670,4,Wijk,EV Vondelparkbuurt,EV,2017,"4,2","19,3","16,2","11,9","45,6","2,8",80.0,,"7,6",4216.0,"6,1","54,6",22,16,"1,3","16,8","39,1","44,1",5984.0,20,EV,4.87339625,52.3615828
413,7672,4,Wijk,FD Slotermeer-Noordoost,FD,2017,"11,4","46,3","28,2","10,9","3,2","0,1",104.0,,"6,9",4421.0,"11,1","47,6","16,2","23,7","1,4","65,6","7,9","26,5",2605.0,69,FD,4.8290986,52.380685
414,7673,4,Wijk,FF Lutkemeer/Ookmeer,FF,2017,"0,6","6,4","12,8","9,6","66,7","3,8",61.0,,,59.0,"9,7","35,4","26,2","27,2","1,5","6,1","37,5","56,4",3332.0,71,FF,4.7811914,52.3663398
415,7674,4,Wijk,FG De Aker,FG,2017,0,1,"23,3","28,1","47,6","0,1",61.0,,"7,5",3602.0,10,"31,5","22,4","35,4","0,8",30,"15,7","54,3",2671.0,72,FG,4.7814874,52.34943735
416,7675,4,Wijk,FH De Punt,FH,2017,"6,2",28,"26,8","25,6","13,2","0,1",121.0,,"7,4",4547.0,"7,4","49,4","19,2",23,1,"40,8","20,4","38,8",2184.0,73,FH,4.7843972,52.3576807
417,7676,4,Wijk,FJ Osdorp-Midden,FJ,2017,"2,9","12,7","32,9","30,3","20,8","0,4",97.0,,"7,3",6339.0,"10,8","43,6","18,4","25,5","1,7","59,3","12,6","28,1",2324.0,85,FJ,4.7951324,52.35534825
418,7677,4,Wijk,FK Osdorp-Oost,FK,2017,"3,3","21,2","42,9","17,9","14,3","0,4",92.0,,"7,2",5082.0,"8,7","52,5","20,6","17,1","1,1","58,5","13,2","28,3",2345.0,86,FK,4.80788145,52.3584471
419,7678,4,Wijk,FL Slotervaart-Noord,FL,2017,"4,7","16,5","34,8","22,1","21,8","0,1",70.0,,"7,3",3013.0,"11,5","42,2","22,1","23,1","1,2","41,3","25,4","33,3",2682.0,87,FL,4.82330125,52.3648658
420,7679,4,Wijk,FM Overtoomse Veld,FM,2017,"3,4","15,7","29,4","31,1",20,"0,3",100.0,,"6,9",3214.0,"7,9","50,3","19,5","20,6","1,7","47,4","31,5","21,1",2565.0,88,FM,4.84217435,52.36552265
421,7680,4,Wijk,FN Slotervaart-Zuid,FN,2017,"9,6","17,5","37,7","19,3","13,2","2,6",106.0,,"6,9",3684.0,"9,3","54,2","18,8","16,7",1,"68,7","10,8","20,4",2688.0,22,FN,4.8262398,52.35126435
422,7681,4,Wijk,FP Westlandgracht,FP,2017,"22,6","10,8","21,9","29,3","15,3","0,1",94.0,,"7,1",3253.0,"5,6","56,2","21,6","14,3","2,2","27,1",50,"22,9",3090.0,25,FP,4.8415109,52.34778785
423,7682,4,Wijk,FQ Sloten/Nieuw-Sloten,FQ,2017,"1,1","1,3","9,6","44,9","42,9","0,3",60.0,,"7,7",1222.0,10,"33,4","26,5","29,2","0,9","19,7","29,8","50,5",2772.0,26,FQ,4.81912355,52.3393372
424,7683,4,Wijk,KA Hoofddorppleinbuurt,KA,2017,"2,8","65,5","18,2","5,5","7,9",0,66.0,,"7,5",7653.0,"6,8","54,7","24,4","12,6","1,6","13,3","45,9","40,8",4778.0,43,KA,4.848138,52.3480818
425,7684,4,Wijk,KB Schinkelbuurt,KB,2017,"4,5","56,1","22,6","8,9","7,6","0,2",55.0,,"7,1",7809.0,"7,2","61,5","20,4","9,5","1,5","35,1","32,1","32,8",4991.0,2,KB,4.852877,52.34964535
426,7685,4,Wijk,KC Willemspark,KC,2017,"0,9","7,4","25,5","12,4","53,6","0,1",66.0,,"7,7",4116.0,"6,8","43,4","22,9","25,7","1,3","10,1","39,5","50,4",6061.0,3,KC,4.86279635,52.35437115
427,7686,4,Wijk,KD Museumkwartier,KD,2017,"5,6","12,1","17,3","15,4","49,3","0,3",75.0,,"7,8",5143.0,"5,3",50,"24,4",19,"1,3","4,6","54,8","40,7",6063.0,4,KD,4.87646435,52.3552648
428,7687,4,Wijk,KE Oude Pijp,KE,2017,"18,7","36,8","24,4","9,4","10,5","0,2",85.0,,"6,8",14758.0,5,"63,7","20,9","8,3","2,1","27,1","42,7","30,2",5334.0,5,KE,4.89627025,52.35623165
429,7688,4,Wijk,KF Nieuwe Pijp,KF,2017,"10,9","48,6","24,4","9,1","6,6","0,3",74.0,,"7,2",14625.0,6,"62,3","20,6","9,2","1,8","31,5","37,1","31,4",5030.0,6,KF,4.8973224,52.3520907
430,7689,4,Wijk,KG Zuid Pijp,KG,2017,"1,8","54,2","33,7","7,5","2,6","0,1",50.0,,"7,3",12952.0,"11,4","57,4","18,4","11,3","1,5","70,7",14,"15,3",4869.0,66,KG,4.90280345,52.35067815
431,7690,4,Wijk,KH Stadionbuurt,KH,2017,"1,4","42,6","34,3","12,4","9,3",0,79.0,,"7,5",6948.0,"9,5",55,"21,1","13,1","1,2","49,1","33,3","17,6",5078.0,8,KH,4.8574755,52.34445665
432,7691,4,Wijk,KJ Apollobuurt,KJ,2017,"1,5",2,"5,5","10,4","80,6","0,1",55.0,,"8,3",4389.0,"6,2","40,6","24,1","27,3","1,8","1,6","45,4",53,5480.0,9,KJ,4.87579195,52.34809945
433,7692,4,Wijk,KK Scheldebuurt,KK,2017,"4,8","10,9",37,"32,4","14,8","0,2",58.0,,"7,6",7684.0,"6,7","49,2","25,3",16,"2,8","17,5","53,2","29,3",4858.0,10,KK,4.8961454,52.341527
434,7693,4,Wijk,KL IJselbuurt,KL,2017,"1,2","32,9","52,2","7,4","6,2","0,1",82.0,,"7,2",11720.0,"8,2",56,"22,6","10,7","2,6","44,8","37,8","17,4",4652.0,11,KL,4.90391425,52.3480695
435,7694,4,Wijk,KM Rijnbuurt,KM,2017,"1,2","64,5","21,1",8,"5,1",0,52.0,,"7,5",5487.0,"7,6","58,1","22,1","10,1","2,1","39,4",39,"21,6",4869.0,12,KM,4.9038287,52.3400648
436,7695,4,Wijk,KN Prinses Irenebuurt e.o.,KN,2017,0,"7,5","4,2","25,7","61,4","1,3",42.0,,8,1816.0,"5,2","49,3","21,5","23,2","0,7",,22,78,4692.0,14,KN,4.875265,52.34370745
437,7696,4,Wijk,KP Zuidas,KP,2017,52,"3,6","6,3","12,4","25,7",0,68.0,,"6,3",767.0,"1,2","78,6","13,5","6,1","0,6","5,4","82,3","12,3",4173.0,15,KP,4.87475785,52.33829205
438,7697,4,Wijk,KQ Buitenveldert-West,KQ,2017,"6,1","11,6","41,4","16,9","23,6","0,5",42.0,,"7,5",2622.0,"5,7","54,4",24,"14,3","1,5","26,8","31,7","41,5",3365.0,16,KQ,4.84837205,52.33015895
439,7698,4,Wijk,KR Buitenveldert-Oost,KR,2017,"12,7","5,5","40,1","18,8","22,5","0,4",67.0,,"7,4",2955.0,6,"58,4",23,"11,6","1,1","28,5","36,9","34,6",3226.0,17,KR,4.88851085,52.32913525
440,7699,4,Wijk,MA Oostelijk Havengebied,MA,2017,"0,6","6,6","23,2","36,4",33,"0,3",73.0,,"7,7",5854.0,"10,1","42,9","24,6","21,5","0,9","37,1","22,6","40,2",3916.0,27,MA,4.9336513,52.3745605
441,7700,4,Wijk,MB Weesperzijde,MB,2017,"8,7","32,6","25,5","13,9","18,9","0,5",122.0,,"7,3",7494.0,5,"55,3","24,7","13,2","1,9","27,7","29,1","43,3",4762.0,28,MB,4.9105667,52.35435315
442,7701,4,Wijk,MC Oosterparkbuurt,MC,2017,"10,7","38,3","27,5",14,"8,3","1,3",92.0,,"7,3",8543.0,"7,8","58,4","20,1","12,2","1,5","57,6","15,2","27,2",4457.0,29,MC,4.9175089,52.35904
443,7702,4,Wijk,MD Transvaalbuurt,MD,2017,"5,6","39,4",34,"14,3","6,6",0,83.0,,"7,3",12725.0,"10,1","51,7","20,7","15,4","2,1","61,9","14,7","23,4",4304.0,30,MD,4.9213968,52.35394625
444,7703,4,Wijk,ME Dapperbuurt,ME,2017,"14,1","27,1","33,9","14,4","10,2","0,3",83.0,,"7,2",8924.0,"7,9","58,9","19,6","12,1","1,5","57,8","18,5","23,7",4258.0,74,ME,4.9298721,52.36095465
445,7704,4,Wijk,MF Indische Buurt-West,MF,2017,"8,8","44,9","25,1","14,1","6,8","0,4",67.0,,"7,2",14216.0,"7,5","53,3","22,6","14,9","1,6","56,6","14,4","29,1",4075.0,31,MF,4.9360817,52.3621942
446,7705,4,Wijk,MG Indische Buurt-Oost,MG,2017,"5,3","35,9","29,4","23,1","6,2",0,106.0,,"7,4",5507.0,"8,8","53,5","19,3","17,1","1,3","67,4","10,2","22,4",3738.0,32,MG,4.95038715,52.363115
447,7706,4,Wijk,MH Zeeburgereiland/Bovendiep,MH,2017,"63,6","5,2","16,5","4,7","7,9",2,75.0,,"6,7",596.0,"2,2","76,8","13,1","6,1","1,8","27,8","63,8","8,4",2846.0,33,MH,4.9826381,52.36209375
448,7707,4,Wijk,MJ IJburg-West,MJ,2017,"1,8","1,4","8,9","32,4","55,5",0,75.0,,"7,8",4943.0,"14,1","30,9","17,8","36,5","0,7","34,5","18,3","47,2",3131.0,34,MJ,4.98973895,52.35968475
449,7709,4,Wijk,ML IJburg-Zuid,ML,2017,"3,9","2,1",12,"37,2","44,7",0,80.0,,8,4211.0,"13,2","33,1","14,6","38,5","0,6","42,1","16,3","41,7",3238.0,36,ML,5.00638825,52.3497225
450,7710,4,Wijk,MM Frankendael,MM,2017,"24,1","28,7","22,5","13,2","10,2","1,4",81.0,,"7,3",3721.0,"6,8","60,6","19,3","12,6","0,7","54,5","29,2","16,3",4193.0,37,MM,4.92620945,52.34757445
451,7711,4,Wijk,MN Middenmeer,MN,2017,"16,2","5,8","28,5",26,"23,5","0,1",58.0,,"7,8",2687.0,"6,5","46,6",24,"21,1","1,7","21,5","40,1","38,4",4176.0,38,MN,4.94897385,52.3496457
452,7712,4,Wijk,MP Betondorp,MP,2017,"8,1","34,2",51,"4,8",2,0,63.0,,"4,9",1793.0,"10,2","59,9","19,7","9,8","0,4","82,1","4,6","13,3",3757.0,39,MP,4.93993925,52.3421535
453,7713,4,Wijk,MQ Omval/Overamstel,MQ,2017,"72,4","1,2","5,2","11,2",10,0,100.0,,"5,7",1067.0,"1,4","79,9","13,7","4,3","0,6","3,7","82,9","13,4",3823.0,40,MQ,4.91891395,52.33237885
454,7714,4,Wijk,NB Noordelijke IJ-oevers-West,NB,2017,"49,5","2,4","7,4","15,3","25,3","0,1",109.0,,"6,5",587.0,"3,5","64,3","20,7","10,9","0,6","29,9","53,2","16,8",3172.0,50,NB,4.88828365,52.40021275
455,7715,4,Wijk,NC Tuindorp Oostzaan,NC,2017,"6,9","31,2","39,9","8,8","13,2","0,1",56.0,,"6,9",3231.0,"11,6","42,4","22,1","23,3","0,6","66,9","7,1",26,2784.0,51,NC,4.89119195,52.41028075
456,7716,4,Wijk,ND Kadoelen,ND,2017,"1,2",8,"30,4","36,9","23,4",0,90.0,,"7,2",930.0,"9,7","27,7","29,4","32,6","0,6","33,7","12,4","53,8",3134.0,52,ND,4.90915285,52.4161941
457,7717,4,Wijk,NE Banne Buiksloot,NE,2017,"1,8","15,1","34,3","34,2","14,3","0,4",74.0,,"7,4",3611.0,"11,8","43,1","20,4","23,9","0,9","64,8","6,8","28,4",2290.0,53,NE,4.9165661,52.4079328
458,7718,4,Wijk,NF Nieuwendammerdijk/Buiksloterdijk,NF,2017,"2,1","6,7","21,1",24,"45,2",1,64.0,,"7,6",1793.0,"5,9","25,7","26,3","41,6","0,5",,"17,2","82,5",3657.0,54,NF,4.93357905,52.39356785
459,7719,4,Wijk,NG Elzenhagen,NG,2017,0,0,"11,6","15,9","72,4",0,68.0,,"7,5",1120.0,"7,7",27,"22,4","42,2","0,8","16,9","26,6","56,5",2720.0,55,NG,4.9307624,52.40331505
460,7720,4,Wijk,NH Buikslotermeer,NH,2017,"1,2","13,8",44,"31,5","9,2","0,4",79.0,,"7,7",3581.0,"11,1","53,1","20,4","14,2","1,2",62,"9,5","28,4",2228.0,56,NH,4.9381749,52.40017325
461,7721,4,Wijk,NJ Waterlandpleinbuurt,NJ,2017,"2,4","14,2",47,"24,6","11,4","0,4",95.0,,"7,5",3946.0,"14,4","42,1","18,6","23,9",1,"57,8","11,8","30,4",2432.0,57,NJ,4.95389985,52.39455385
462,7722,4,Wijk,NK Volewijck,NK,2017,"5,6",47,"31,1","12,1",4,"0,2",82.0,,"7,2",4147.0,"13,9","50,3","17,7","17,2","0,9",82,"7,3","10,7",2944.0,58,NK,4.9111678,52.39107185
463,7723,4,Wijk,NL IJplein/Vogelbuurt,NL,2017,"6,6","36,4","27,3","23,1","6,4","0,2",84.0,,"7,2",3448.0,"12,5","52,9","18,3","15,3","0,9","74,1","5,3","20,6",2981.0,59,NL,4.92086315,52.38946545
464,7724,4,Wijk,NM Tuindorp Buiksloot,NM,2017,"4,3","44,4","45,3","3,2","2,9",0,64.0,,"6,9",5413.0,"14,9","42,1",23,"19,2","0,7","82,5","4,3","13,3",3085.0,60,NM,4.92907435,52.3932217
465,7725,4,Wijk,NN Tuindorp Nieuwendam,NN,2017,"5,8","60,7","28,8","3,4","1,3","0,1",64.0,,"6,6",4336.0,12,"45,8","23,8","18,1","0,3","80,5",5,"14,5",3394.0,61,NN,4.94372485,52.39066235
466,7726,4,Wijk,NP Noordelijke IJ-oevers-Oost,NP,2017,0,"4,1","32,4",27,"35,1","1,4",,,,108.0,"1,6","54,4","32,8","7,2",4,,"75,7","24,3",4271.0,62,NP,4.9356245,52.38420895
467,7727,4,Wijk,NQ Waterland,NQ,2017,"3,2","10,6","21,1","19,9","43,9","1,3",97.0,,"6,4",35.0,"6,3","31,6","28,9",32,"1,3","4,2","22,6","73,1",4017.0,63,NQ,5.0044116,52.39749585
468,7728,4,Wijk,SA Driemond,SA,2017,"0,9","8,7","48,4","26,1","15,5","0,3",38.0,,"7,7",356.0,"11,2","27,4","29,1","31,7","0,5","38,8","10,8","50,5",2631.0,64,SA,5.0088323,52.31348545
469,7729,4,Wijk,TA Amstel III/Bullewijk,TA,2017,"93,1","3,3","0,3","0,3","2,8","0,3",,,,73.0,"0,8","91,9","4,8","1,7","0,8",,"98,3",,2528.0,103,TA,4.9505866,52.29875535
470,7730,4,Wijk,TB Venserpolder,TB,2017,"11,3","31,7",37,"12,7","7,2",0,,,"6,9",5898.0,"15,6","58,9","13,6","10,4","1,5","65,1","8,2","26,7",2254.0,7,TB,4.94524345,52.3215816
471,7731,4,Wijk,TD H-buurt,TD,2017,"11,8","4,9","28,2","46,3","8,6","0,2",,,"7,4",4366.0,21,"53,1","12,4","11,7","1,8","73,5","14,5","11,9",1927.0,76,TD,4.95644015,52.3082972
472,7732,4,Wijk,TE Ganzenhoef e.o.,TE,2017,"7,4","13,5",7,"34,7","37,2","0,2",,,"7,2",3934.0,"18,7","47,5","13,3","18,8","1,8","51,2","21,4","27,4",1870.0,77,TE,4.9672283,52.322178
473,7733,4,Wijk,TF Geerdinkhof/Kantershof,TF,2017,"0,2","14,8","22,6","24,5","37,7","0,4",,,"7,4",2289.0,"9,9","53,6","19,5","15,4","1,5","30,4","10,4","59,2",1904.0,78,TF,4.98368765,52.32263805
474,7734,4,Wijk,TJ Holendrecht,TJ,2017,"0,5","14,8","29,3","43,6","10,9","0,8",,,"7,5",3212.0,"24,1","43,4","15,9","15,6","1,1","77,2","6,7","16,1",1800.0,81,TJ,4.9670607,52.30116005
475,7735,4,Wijk,TK Nellestein,TK,2017,0,"8,8","43,6","34,9","11,7",1,91.0,,"7,4",766.0,"9,2","57,2","21,9","10,9","0,8","20,1","37,3","42,6",1693.0,82,TK,4.99284355,52.3095795
476,7736,4,Wijk,TL Reigersbos,TL,2017,"4,9","16,5","35,7","31,7","10,9","0,3",,,"7,8",3227.0,"15,7","50,8","17,4","15,2",1,58,"9,5","32,4",2002.0,83,TL,4.9726632,52.2929851
477,7737,4,Wijk,TM Gein,TM,2017,"3,9","11,3","44,6","31,7","6,2","2,2",88.0,,"7,6",2812.0,"16,8","42,8","19,2","20,2",1,"47,3","15,1","37,6",2133.0,84,TM,4.9939257,52.295524
478,8490,4,Wijk,AA Haarlemmerbuurt,AA,2016,"11,2",29,"25,7","15,3","17,9",1,75.0,,,10389.0,"6,7","59,3","21,3","11,7",1,"44,1","29,1","26,8",4348.0,21,AA,4.89021995,52.3837291
479,8491,4,Wijk,AB Jordaan,AB,2016,"20,4","37,6","22,3",9,"9,7",1,81.0,,,15623.0,"5,7","66,3","18,8","8,2","1,1",38,"34,7","27,3",4481.0,23,AB,4.8814382,52.3745526
480,8492,4,Wijk,AC Grachtengordel-West,AC,2016,12,"19,3","16,7","12,8","35,7","3,5",68.0,,,9600.0,"3,5","61,2","24,7","9,2","1,4","11,9","47,9","40,2",4587.0,24,AC,4.888214,52.37334925
481,8493,4,Wijk,AD Burgwallen-Nieuwe Zijde,AD,2016,"19,3","28,5","20,6","12,8","14,4","4,4",131.0,,,4896.0,"2,5",66,"24,4","4,3","2,8","9,6","69,6","20,8",4231.0,41,AD,4.8971187,52.3749354
482,8494,4,Wijk,AE Burgwallen-Oude Zijde,AE,2016,"15,9",31,"20,7","12,3","16,3","3,8",125.0,,,8183.0,"4,2","64,7","22,8","5,2","3,2","19,8",60,"20,3",3980.0,42,AE,4.8976341,52.37229515
483,8495,4,Wijk,AF Nieuwmarkt/Lastage,AF,2016,"9,7","28,9","23,4","17,4","15,9","4,7",103.0,,,8607.0,6,"62,7","21,9",8,"1,4","41,4","30,4","28,1",4216.0,44,AF,4.904438,52.37291
484,8496,4,Wijk,AG Grachtengordel-Zuid,AG,2016,"9,9","19,9","19,5","15,1","33,4","2,2",175.0,,,6437.0,"3,7","60,6","23,8","10,4","1,5","5,9",56,"38,2",4584.0,45,AG,4.8927838,52.3650518
485,8497,4,Wijk,AH De Weteringschans,AH,2016,"16,5","28,6","19,4",11,23,"1,4",151.0,,,8146.0,4,"60,2","23,8","9,9",2,"11,7","48,9","39,5",4522.0,46,AH,4.89192575,52.36205585
486,8498,4,Wijk,AJ Weesperbuurt/Plantage,AJ,2016,18,"26,5","25,8","9,2","19,4","1,1",93.0,,,5596.0,"4,3",64,"21,3","9,1","1,2","35,2","32,4","32,4",4310.0,47,AJ,4.91176485,52.3644559
487,8499,4,Wijk,AK Oostelijke Eilanden/Kadijken,AK,2016,"17,7","20,9","27,2","22,1","11,6","0,5",79.0,,,7354.0,"7,8",59,"19,6","12,7",1,"61,6","11,9","26,5",3745.0,48,AK,4.9218291,52.37072065
488,8500,4,Wijk,EA Sloterdijk-West,EA,2016,"1,7","16,3","46,8","19,7",15,"0,4",120.0,,,194.0,"2,3","43,2","42,9","9,8","1,9","4,7","87,1","8,2",3787.0,95,EA,4.85453985,52.39031575
489,8501,4,Wijk,EB Spaarndammerbuurt/Zeeheldenbuurt,EB,2016,11,"45,1","22,1",15,"6,3","0,4",79.0,,,4490.0,"9,6","57,8","19,1","12,5","1,1",66,"12,4","21,5",3618.0,96,EB,4.8744225,52.39042765
490,8502,4,Wijk,EC Houthavens,EC,2016,"54,8","12,5","10,4","11,3","10,8","0,1",79.0,,,3633.0,"3,7","63,6","23,3","9,1","0,3","13,3","64,1","22,5",3276.0,97,EC,4.8803174,52.3937846
491,8503,4,Wijk,ED De Kolenkit,ED,2016,"19,9","31,3",15,"22,5","11,3",0,67.0,,,6506.0,"8,5","52,1","17,7","19,9","1,7","69,9","12,1",18,2814.0,98,ED,4.8413775,52.37864745
492,8504,4,Wijk,EE Landlust,EE,2016,"4,1","63,2","23,2","5,7","3,9","0,1",120.0,,,9271.0,"7,7",53,"21,7","15,7","1,9","48,2","26,2","25,6",3249.0,99,EE,4.85425375,52.3798758
493,8505,4,Wijk,EF Erasmuspark,EF,2016,"2,8","67,3","17,8","8,5","3,6",0,92.0,,,8489.0,"6,6","52,1","25,1",14,"2,1","17,3","38,3","44,4",3235.0,100,EF,4.85118035,52.3762431
494,8506,4,Wijk,EG Centrale Markt,EG,2016,3,"15,3","29,5","35,7","14,5",2,67.0,,,2302.0,"11,5","48,4","18,3","20,7",1,"49,5","12,4",38,3553.0,101,EG,4.86567395,52.37904255
495,8507,4,Wijk,EH Staatsliedenbuurt,EH,2016,"20,2","39,8","19,8","13,7","5,8","0,7",74.0,,,16679.0,"7,1","60,2","19,9","11,8",1,"48,9","20,1",31,4030.0,102,EH,4.875206,52.3808103
496,8508,4,Wijk,EJ Frederik Hendrikbuurt,EJ,2016,"13,6","47,6","22,4","10,4","5,9","0,2",67.0,,,14106.0,"5,8","61,5","20,8","10,9","1,1","38,7","31,2","30,1",4108.0,104,EJ,4.873115,52.37675945
497,8509,4,Wijk,EK Van Galenbuurt,EK,2016,"2,1","80,6","11,8","3,1","2,3","0,1",93.0,,,11079.0,7,"68,5","15,2","8,4","0,9","50,6","26,1","23,2",3509.0,105,EK,4.8495595,52.3719726
498,8510,4,Wijk,EL Geuzenbuurt,EL,2016,"4,5",57,"26,7","6,8",5,"0,1",98.0,,,13054.0,"6,2","54,7",24,"12,7","2,3","20,2","42,4","37,3",3624.0,106,EL,4.8614025,52.37277565
499,8511,4,Wijk,EM Hoofdweg e.o.,EM,2016,"1,8","76,9","12,1","5,9","3,3","0,1",94.0,,,14265.0,"8,2","56,2","21,5","12,6","1,5","40,4","36,2","23,4",3440.0,107,EM,4.8533061,52.36724645
500,8512,4,Wijk,EN ChassÃƒÂ©buurt,EN,2016,"1,9","30,7","48,4","10,1","8,8","0,1",71.0,,,11800.0,"9,3","48,5","21,9","18,4","1,9","44,3","28,6","27,1",3446.0,108,EN,4.86079195,52.36759385
501,8513,4,Wijk,EP Bellamybuurt,EP,2016,"10,9","49,2","23,9","9,2","6,7","0,2",64.0,,,14400.0,"6,1","64,9","18,8","8,5","1,7","38,3","35,8","25,9",4127.0,109,EP,4.8654401,52.36809885
502,8514,4,Wijk,EQ Da Costabuurt,EQ,2016,9,"25,2","41,8",14,"9,9","0,2",82.0,,,12032.0,"6,1","58,7","22,7","10,3","2,3",23,"43,6","33,4",4232.0,0,EQ,4.8721073,52.37013015
503,8515,4,Wijk,ER Westindische Buurt,ER,2016,"0,2","60,5","25,7","6,8","6,7","0,1",63.0,,,11291.0,"6,4","52,1","25,8","13,2","2,4","17,9","49,9","32,2",3853.0,1,ER,4.8540622,52.36100675
504,8516,4,Wijk,ES Van Lennepbuurt,ES,2016,"19,9","40,8","25,6","9,1","3,6",1,97.0,,,17812.0,"6,9",66,"16,8",9,"1,3","54,6","22,3","23,2",3985.0,13,ES,4.8674871,52.3650266
505,8517,4,Wijk,ET Overtoomse Sluis,ET,2016,"5,5","46,1","25,5","11,8","10,5","0,7",63.0,,,15397.0,"5,6","56,5","23,7","12,4","1,9",20,"42,3","37,7",4413.0,18,ET,4.8598311,52.35973835
506,8518,4,Wijk,EU Helmersbuurt,EU,2016,"4,7","36,7","27,4","10,3","20,1","0,8",83.0,,,12776.0,"6,1","58,3","21,3","12,8","1,6","26,5","37,2","36,3",4405.0,19,EU,4.8715505,52.3635334
507,8519,4,Wijk,EV Vondelparkbuurt,EV,2016,"4,3","19,3","16,1","11,8","45,6","2,9",83.0,,,4118.0,"6,9","53,1",23,"15,8","1,1","16,8","40,9","42,3",4563.0,20,EV,4.87339625,52.3615828
508,8521,4,Wijk,FD Slotermeer-Noordoost,FD,2016,"11,4","46,3","28,4","10,9","2,9","0,1",118.0,,,4433.0,"10,8","47,3","17,5","23,1","1,3","66,5","6,6","26,9",2273.0,69,FD,4.8290986,52.380685
509,8522,4,Wijk,FF Lutkemeer/Ookmeer,FF,2016,"0,7","6,5","13,4","9,8","65,8","3,9",63.0,,,57.0,"10,5","30,8",29,"28,2","1,6","6,5","35,5",58,2959.0,71,FF,4.7811914,52.3663398
510,8523,4,Wijk,FG De Aker,FG,2016,0,1,"23,1","27,8",48,"0,1",63.0,,,3637.0,"10,3","31,2",22,"35,8","0,7","29,8","14,4","55,8",2519.0,72,FG,4.7814874,52.34943735
511,8524,4,Wijk,FH De Punt,FH,2016,"6,2",28,"26,9","25,8",13,"0,2",105.0,,,4544.0,"8,2","49,1","19,1","22,6","1,1","42,7","17,3",40,1986.0,73,FH,4.7843972,52.3576807
512,8525,4,Wijk,FJ Osdorp-Midden,FJ,2016,"2,9","12,7","32,9","30,3","20,8","0,4",101.0,,,6360.0,"10,7","43,6","18,4","25,8","1,5","61,8","10,6","27,6",2199.0,85,FJ,4.7951324,52.35534825
513,8526,4,Wijk,FK Osdorp-Oost,FK,2016,"3,2","20,6","41,6","17,4","12,9","4,3",113.0,,,5230.0,"8,3","52,6","21,1",17,1,"61,7","11,6","26,7",2183.0,86,FK,4.80788145,52.3584471
514,8527,4,Wijk,FL Slotervaart-Noord,FL,2016,"4,7","16,5","34,8","22,4","21,5","0,1",62.0,,,3023.0,"11,1","42,9","21,7","23,1","1,3","41,3","25,1","33,7",2303.0,87,FL,4.82330125,52.3648658
515,8528,4,Wijk,FM Overtoomse Veld,FM,2016,"3,4","15,6","30,7","31,1","18,9","0,3",124.0,,,3240.0,"7,5","50,4","19,6","20,8","1,7","48,9","31,8","19,4",2257.0,88,FM,4.84217435,52.36552265
516,8529,4,Wijk,FN Slotervaart-Zuid,FN,2016,11,"16,4","38,6","19,1","12,4","2,5",90.0,,,3798.0,"10,4","51,2","18,7","18,4","1,4",71,"9,9","19,1",2354.0,22,FN,4.8262398,52.35126435
517,8530,4,Wijk,FP Westlandgracht,FP,2016,"12,5","12,2","24,5","33,3","17,3","0,1",126.0,,,2866.0,"6,4","52,7",23,"16,3","1,6",31,"43,9","25,1",2613.0,25,FP,4.8415109,52.34778785
518,8531,4,Wijk,FQ Sloten/Nieuw-Sloten,FQ,2016,"0,7","1,2","9,6","45,3","42,9","0,3",77.0,,,1210.0,"9,8","33,8","25,8","29,6",1,20,"28,3","51,7",2552.0,26,FQ,4.81912355,52.3393372
519,8532,4,Wijk,KA Hoofddorppleinbuurt,KA,2016,"2,8","66,2","18,3","5,4","7,3",0,82.0,,,7609.0,"6,7","55,5","23,7","12,5","1,5","13,8","46,9","39,3",4100.0,43,KA,4.848138,52.3480818
520,8533,4,Wijk,KB Schinkelbuurt,KB,2016,"4,4","56,5","22,7","8,8","7,4","0,2",61.0,,,7831.0,"7,3",60,"21,8","8,9","2,1","35,2","33,9","30,9",4134.0,2,KB,4.852877,52.34964535
521,8534,4,Wijk,KC Willemspark,KC,2016,"0,9","7,4","25,7","12,4","53,4","0,2",56.0,,,4073.0,"6,7","43,9","22,5","25,5","1,4","10,2","42,4","47,4",4615.0,3,KC,4.86279635,52.35437115
522,8535,4,Wijk,KD Museumkwartier,KD,2016,"5,9","12,4","17,2","15,3","48,8","0,3",75.0,,,5139.0,"4,9","50,5","24,4","18,9","1,3","4,9","56,7","38,4",4606.0,4,KD,4.87646435,52.3552648
523,8536,4,Wijk,KE Oude Pijp,KE,2016,"18,9","36,9","24,4","9,4","10,2","0,2",72.0,,,14619.0,"5,1","63,2","21,3","8,2","2,2","27,5","44,6","27,9",4317.0,5,KE,4.89627025,52.35623165
524,8537,4,Wijk,KF Nieuwe Pijp,KF,2016,"10,9","48,9","24,4",9,"6,5","0,3",70.0,,,14682.0,"5,8","62,2",21,"9,2","1,7",32,"38,6","29,5",4262.0,6,KF,4.8973224,52.3520907
525,8538,4,Wijk,KG Zuid Pijp,KG,2016,"1,8","54,4","33,7","7,4","2,6","0,1",54.0,,,13057.0,"11,1","57,3","18,8","11,6","1,3","71,4","14,3","14,3",4240.0,66,KG,4.90280345,52.35067815
526,8539,4,Wijk,KH Stadionbuurt,KH,2016,"1,4","43,4","34,2","11,8","9,2",0,75.0,,,6848.0,"9,2","54,7","21,6","13,1","1,4","50,8","32,2","16,9",4338.0,8,KH,4.8574755,52.34445665
527,8540,4,Wijk,KJ Apollobuurt,KJ,2016,"1,5",2,"5,5","10,4","80,5","0,1",57.0,,,4397.0,"5,9",41,"24,8","26,8","1,6","1,6","46,9","51,5",4405.0,9,KJ,4.87579195,52.34809945
528,8541,4,Wijk,KK Scheldebuurt,KK,2016,"4,8","10,1","37,6","32,8","14,5","0,2",58.0,,,7479.0,"6,4","50,2","24,2","16,4","2,8","18,2","53,2","28,6",4010.0,10,KK,4.8961454,52.341527
529,8542,4,Wijk,KL IJselbuurt,KL,2016,"1,2",33,"52,2","7,4","6,2","0,1",103.0,,,11481.0,"7,9","55,7","23,1","11,3",2,"45,3","38,1","16,7",3900.0,11,KL,4.90391425,52.3480695
530,8543,4,Wijk,KM Rijnbuurt,KM,2016,"1,1","65,3",21,"7,9","4,7",0,58.0,,,5447.0,"7,7","58,4",22,10,2,"40,3","39,5","20,2",4081.0,12,KM,4.9038287,52.3400648
531,8544,4,Wijk,KN Prinses Irenebuurt e.o.,KN,2016,0,"7,5","4,2","25,8","61,3","1,3",62.0,,,1829.0,"4,9","48,2",24,"21,7","1,2",,"22,6","77,4",3451.0,14,KN,4.875265,52.34370745
532,8545,4,Wijk,KP Zuidas,KP,2016,"57,8",4,"1,8","8,6","27,8",0,62.0,,,688.0,"1,8","80,7","9,9","7,1","0,5","5,9",82,12,3684.0,15,KP,4.87475785,52.33829205
533,8546,4,Wijk,KQ Buitenveldert-West,KQ,2016,"6,1","11,6","41,5","16,9","23,5","0,5",53.0,,,2612.0,"6,1","55,1","23,1","14,3","1,4","27,6","32,5","39,9",2957.0,16,KQ,4.84837205,52.33015895
534,8547,4,Wijk,KR Buitenveldert-Oost,KR,2016,"12,7","5,5","40,1","18,8","22,6","0,4",67.0,,,2964.0,"5,9","59,6","22,5",11,1,"28,9","38,8","32,4",2900.0,17,KR,4.88851085,52.32913525
535,8548,4,Wijk,MA Oostelijk Havengebied,MA,2016,"0,4","6,6",23,"36,2","33,5","0,3",81.0,,,5731.0,"10,1","42,5",24,"22,5","0,9","37,1","23,1","39,8",3589.0,27,MA,4.9336513,52.3745605
536,8549,4,Wijk,MB Weesperzijde,MB,2016,"8,7",33,"25,4","13,4","18,3","1,2",104.0,,,7581.0,"4,9","56,8","23,1","13,3","1,9","29,2","29,8",41,4067.0,28,MB,4.9105667,52.35435315
537,8550,4,Wijk,MC Oosterparkbuurt,MC,2016,"10,6","38,4","27,4","13,8",8,"1,7",98.0,,,8599.0,"7,6","58,7",20,"12,1","1,6","59,4","14,6",26,3576.0,29,MC,4.9175089,52.35904
538,8551,4,Wijk,MD Transvaalbuurt,MD,2016,"5,7","39,5",34,"14,3","6,5",0,82.0,,,12641.0,10,"52,6","20,2","15,2",2,"62,8","15,1","22,1",3578.0,30,MD,4.9213968,52.35394625
539,8552,4,Wijk,ME Dapperbuurt,ME,2016,"12,3","27,6","34,6","15,2",10,"0,3",116.0,,,8403.0,"8,6","58,1","19,8","12,2","1,3","59,5","16,5",24,3576.0,74,ME,4.9298721,52.36095465
540,8553,4,Wijk,MF Indische Buurt-West,MF,2016,"10,7","45,4",24,"12,9","6,7","0,4",83.0,,,14217.0,"7,4","55,7","20,7","14,7","1,5","58,1","14,9","26,9",3238.0,31,MF,4.9360817,52.3621942
541,8554,4,Wijk,MG Indische Buurt-Oost,MG,2016,"5,3","36,4","29,1","22,9","6,2",0,106.0,,,5357.0,"9,2","53,6","18,5","17,3","1,4","67,6","10,9","21,5",3182.0,32,MG,4.95038715,52.363115
542,8555,4,Wijk,MH Zeeburgereiland/Bovendiep,MH,2016,"68,2","2,7","12,7","1,4","10,1","4,8",75.0,,,259.0,"2,4","72,1","16,1","6,5","2,8","67,7","19,9","12,4",2220.0,33,MH,4.9826381,52.36209375
543,8556,4,Wijk,MJ IJburg-West,MJ,2016,"1,6","1,4","8,8","32,7","55,3","0,1",75.0,,,4936.0,"13,9","30,4","17,3","37,5","0,9","34,8","17,2",48,2866.0,34,MJ,4.98973895,52.35968475
544,8558,4,Wijk,ML IJburg-Zuid,ML,2016,"4,1","2,2","12,7","38,8","42,2",0,70.0,,,4020.0,"13,2","33,4","14,9","37,9","0,6",45,"13,8","41,2",2883.0,36,ML,5.00638825,52.3497225
545,8559,4,Wijk,MM Frankendael,MM,2016,"23,5","29,1","22,9","13,4","9,7","1,4",66.0,,,3676.0,7,"60,4","19,9","12,1","0,6","56,7","26,9","16,3",3503.0,37,MM,4.92620945,52.34757445
546,8560,4,Wijk,MN Middenmeer,MN,2016,"16,5",6,"27,3","26,5","23,5","0,1",70.0,,,2643.0,"7,1","46,4",23,"21,8","1,7","31,9","29,8","38,3",3564.0,38,MN,4.94897385,52.3496457
547,8561,4,Wijk,MP Betondorp,MP,2016,"8,1","34,2","51,1","4,7","1,9",0,75.0,,,1788.0,"10,4","59,3","19,9",10,"0,5","83,1","4,2","12,7",3130.0,39,MP,4.93993925,52.3421535
548,8562,4,Wijk,MQ Omval/Overamstel,MQ,2016,"73,1","1,2","5,3","11,1","9,3",0,105.0,,,1038.0,"1,2","81,8","12,1","4,3","0,5","37,9","50,4","11,8",3302.0,40,MQ,4.91891395,52.33237885
